{"type":"FeatureCollection", "features": [
{"type":"Feature","geometry":{"type":"Point","coordinates":[114.062639433987,22.5540871904236]},"properties":{"ID":1,"region":"福田区","phone":"0755-83936101","name":"深圳市儿童医院","address":"深圳市红荔西路益田路口7019号","rank":"二级","lng":114.062639434,"lat":22.5540871904}},
{"type":"Feature","geometry":{"type":"Point","coordinates":[114.13713007092,22.5705418538632]},"properties":{"ID":2,"region":"罗湖区","phone":"0755-25533524","name":"深圳市康宁医院","address":"深圳市翠竹路1080号","rank":"二级","lng":114.137130071,"lat":22.5705418539}},
{"type":"Feature","geometry":{"type":"Point","coordinates":[114.135545010848,22.6413640641739]},"properties":{"ID":3,"region":"龙岗区","phone":"0755-61222333-6311","name":"深圳市第三人民医院","address":"深圳市龙岗区布澜路29号","rank":"二级","lng":114.135545011,"lat":22.6413640642}},
{"type":"Feature","geometry":{"type":"Point","coordinates":[114.128484778694,22.5449783245826]},"properties":{"ID":4,"region":"罗湖区","phone":"0755-82230056","name":"深圳市罗湖区人民医院","address":"深圳市罗湖区友谊路","rank":"二级","lng":114.128484779,"lat":22.5449783246}},
{"type":"Feature","geometry":{"type":"Point","coordinates":[113.927718078639,22.5022550914872]},"properties":{"ID":5,"region":"南山区","phone":"0755-26866176","name":"深圳市南山区蛇口人民医院","address":"深圳市南山区蛇口工业七路三十六号","rank":"二级","lng":113.927718079,"lat":22.5022550915}},
{"type":"Feature","geometry":{"type":"Point","coordinates":[114.240143524734,22.5629619083168]},"properties":{"ID":6,"region":"盐田区","phone":"0755-25552422","name":"深圳市盐田区人民医院","address":"深圳市盐田区沙头角梧桐路2032号","rank":"二级","lng":114.240143525,"lat":22.5629619083}},
{"type":"Feature","geometry":{"type":"Point","coordinates":[114.357835739729,22.693320184251]},"properties":{"ID":7,"region":"坪山区","phone":"0755-84601781","name":"深圳市坪山新区人民医院","address":"深圳市龙岗区坪山镇人民街19号","rank":"二级","lng":114.35783574,"lat":22.6933201843}},
{"type":"Feature","geometry":{"type":"Point","coordinates":[114.312644864115,22.7200920127782]},"properties":{"ID":8,"region":"罗湖区","phone":"0755-82238541","name":"深圳市罗湖区中医院","address":"深圳市乐园路83号","rank":"二级","lng":114.312644864,"lat":22.7200920128}},
{"type":"Feature","geometry":{"type":"Point","coordinates":[114.048093891514,22.5623126844758]},"properties":{"ID":9,"region":"福田区","phone":"0755-83548566","name":"深圳市福田区中医院","address":"深圳市福田区景田北6001号","rank":"二级","lng":114.048093892,"lat":22.5623126845}},
{"type":"Feature","geometry":{"type":"Point","coordinates":[114.222398577357,22.7136378963122]},"properties":{"ID":10,"region":"龙岗区","phone":"89911830","name":"深圳市龙岗区中医院","address":"深圳市龙岗区体育新城大运路1号","rank":"二级","lng":114.222398577,"lat":22.7136378963}},
{"type":"Feature","geometry":{"type":"Point","coordinates":[113.886610899871,22.5855979531798]},"properties":{"ID":11,"region":"宝安区","phone":"0755-27956611","name":"深圳市宝安区中心医院","address":"深圳市宝安区西乡镇乐园街60号","rank":"二级","lng":113.8866109,"lat":22.5855979532}},
{"type":"Feature","geometry":{"type":"Point","coordinates":[113.89042744066,22.5600329089245]},"properties":{"ID":12,"region":"宝安区","phone":"0755-27728595","name":"深圳市宝安区沙井人民医院","address":"深圳市宝安区沙井镇大街3号","rank":"二级","lng":113.890427441,"lat":22.5600329089}},
{"type":"Feature","geometry":{"type":"Point","coordinates":[113.89042744066,22.5600329089245]},"properties":{"ID":13,"region":"宝安区","phone":"0755-27717273","name":"深圳市宝安区松岗人民医院","address":"深圳市宝安区松岗镇沙江路2号","rank":"二级","lng":113.890427441,"lat":22.5600329089}},
{"type":"Feature","geometry":{"type":"Point","coordinates":[113.89042744066,22.5600329089245]},"properties":{"ID":14,"region":"宝安区","phone":"0755-27396163","name":"深圳市宝安区福永人民医院","address":"深圳市宝安区福永镇德丰路81号","rank":"二级","lng":113.890427441,"lat":22.5600329089}},
{"type":"Feature","geometry":{"type":"Point","coordinates":[114.122399208019,22.6118019349668]},"properties":{"ID":15,"region":"龙岗区","phone":"0755-28871625","name":"深圳市龙岗区第二人民医院","address":"深圳市龙岗区布吉镇吉华路175号","rank":"二级","lng":114.122399208,"lat":22.611801935}},
{"type":"Feature","geometry":{"type":"Point","coordinates":[114.218666387456,22.6542161724368]},"properties":{"ID":16,"region":"龙岗区","phone":"0755-28863382","name":"深圳市龙岗区第三人民医院","address":"深圳市龙岗区横岗镇松柏路278号","rank":"二级","lng":114.218666387,"lat":22.6542161724}},
{"type":"Feature","geometry":{"type":"Point","coordinates":[114.137360845605,22.7040378693806]},"properties":{"ID":17,"region":"龙岗区","phone":"0755-28450631","name":"深圳市龙岗区第五人民医院","address":"深圳市龙岗区平湖镇双拥街77号","rank":"二级","lng":114.137360846,"lat":22.7040378694}},
{"type":"Feature","geometry":{"type":"Point","coordinates":[113.903757036796,22.7629204337417]},"properties":{"ID":18,"region":"光明区","phone":"0755-27732924","name":"深圳市光明新区人民医院","address":"深圳市宝安区公明镇松白路公明段339号","rank":"二级","lng":113.903757037,"lat":22.7629204337}},
{"type":"Feature","geometry":{"type":"Point","coordinates":[113.918266467388,22.5746834503037]},"properties":{"ID":19,"region":"光明区","phone":"0755-27400061","name":"深圳市光明新区中心医院","address":"深圳市宝安区光明街道北区","rank":"二级","lng":113.918266467,"lat":22.5746834503}},
{"type":"Feature","geometry":{"type":"Point","coordinates":[114.018555630083,22.6459672983744]},"properties":{"ID":20,"region":"龙华区","phone":"0755-27741585","name":"深圳市龙华新区人民医院","address":"深圳市宝安区龙华镇建设东路","rank":"二级","lng":114.01855563,"lat":22.6459672984}},
{"type":"Feature","geometry":{"type":"Point","coordinates":[114.050498565532,22.714318984689]},"properties":{"ID":21,"region":"龙华区","phone":"0755-28024426","name":"深圳市龙华新区中心医院","address":"深圳市宝安区观澜大道西","rank":"二级","lng":114.050498566,"lat":22.7143189847}},
{"type":"Feature","geometry":{"type":"Point","coordinates":[114.500972009133,22.5404541230796]},"properties":{"ID":22,"region":"大鹏新区","phone":"0755-84401957","name":"深圳市大鹏新区南澳人民医院","address":"深圳市大鹏新区南澳街道人民路6号","rank":"二级","lng":114.500972009,"lat":22.5404541231}},
{"type":"Feature","geometry":{"type":"Point","coordinates":[114.132512331447,22.5458828965405]},"properties":{"ID":23,"region":"罗湖区","phone":"82140207","name":"深圳流花医院","address":"深圳市罗湖区春风路2069号","rank":"二级","lng":114.132512331,"lat":22.5458828965}},
{"type":"Feature","geometry":{"type":"Point","coordinates":[114.491974131996,22.6008529979404]},"properties":{"ID":24,"region":"大鹏新区","phone":"0755-84305909","name":"深圳市大鹏新区妇幼保健院","address":"深圳市龙岗区大鹏镇鹏新东路149号","rank":"二级","lng":114.491974132,"lat":22.6008529979}},
{"type":"Feature","geometry":{"type":"Point","coordinates":[114.071187349895,22.5284842728241]},"properties":{"ID":25,"region":"福田区","phone":"0755-83836319","name":"深圳市福田区妇幼保健院","address":"深圳市金田路1019号","rank":"二级","lng":114.07118735,"lat":22.5284842728}},
{"type":"Feature","geometry":{"type":"Point","coordinates":[114.143271606028,22.5824811504369]},"properties":{"ID":26,"region":"罗湖区","phone":"0755-25510091","name":"深圳市罗湖区妇幼保健院","address":"深圳市罗湖区太白路2013号","rank":"二级","lng":114.143271606,"lat":22.5824811504}},
{"type":"Feature","geometry":{"type":"Point","coordinates":[113.937519130733,22.4926941483621]},"properties":{"ID":27,"region":"南山区","phone":"0755-26667715","name":"深圳市南山区妇幼保健院","address":"深圳市南山区蛇口湾厦路1号","rank":"二级","lng":113.937519131,"lat":22.4926941484}},
{"type":"Feature","geometry":{"type":"Point","coordinates":[114.256646025761,22.724160962387]},"properties":{"ID":28,"region":"龙岗区","phone":"0755-28933063","name":"深圳市龙岗区妇幼保健院","address":"深圳市龙岗区中心城11区","rank":"二级","lng":114.256646026,"lat":22.7241609624}},
{"type":"Feature","geometry":{"type":"Point","coordinates":[113.90439842693,22.5783373716595]},"properties":{"ID":29,"region":"宝安区","phone":"0755-27803309","name":"深圳市宝安区妇幼保健院","address":"深圳市宝安30区裕安路23号","rank":"二级","lng":113.904398427,"lat":22.5783373717}},
{"type":"Feature","geometry":{"type":"Point","coordinates":[114.120235998521,22.5594841317279]},"properties":{"ID":30,"region":"罗湖区","phone":"0755-25561478","name":"深圳市职业病防治院","address":"深圳市罗湖区桂园北路70号","rank":"二级","lng":114.120235999,"lat":22.5594841317}},
{"type":"Feature","geometry":{"type":"Point","coordinates":[114.141966817275,22.5806583871775]},"properties":{"ID":31,"region":"罗湖区","phone":"0755-25503999","name":"深圳市慢性病防治中心","address":"深圳市布心路2021号","rank":"二级","lng":114.141966817,"lat":22.5806583872}},
{"type":"Feature","geometry":{"type":"Point","coordinates":[114.260401122452,22.596176330671]},"properties":{"ID":32,"region":"盐田区","phone":"-","name":"深圳市盐田区人民医院","address":"深圳市盐田区海山街道梧桐路2010号、盐田街道东海道363号","rank":"二级","lng":114.260401122,"lat":22.5961763307}},
{"type":"Feature","geometry":{"type":"Point","coordinates":[113.887268639165,22.5854645597216]},"properties":{"ID":33,"region":"宝安区","phone":"-","name":"深圳市宝安区中心医院","address":"深圳市宝安区西乡街道广深路西乡段233号和西乡街道熙园街3号","rank":"二级","lng":113.887268639,"lat":22.5854645597}},
{"type":"Feature","geometry":{"type":"Point","coordinates":[113.854627810166,22.7708331130056]},"properties":{"ID":34,"region":"宝安区","phone":"-","name":"深圳市宝安区松岗人民医院","address":"宝安区松岗街道沙江路２号","rank":"二级","lng":113.85462781,"lat":22.770833113}},
{"type":"Feature","geometry":{"type":"Point","coordinates":[114.146022846313,22.5563075720075]},"properties":{"ID":35,"region":"罗湖区","phone":"-","name":"深圳市罗湖区中医院","address":"深圳市罗湖区黄贝2136号","rank":"二级","lng":114.146022846,"lat":22.556307572}},
{"type":"Feature","geometry":{"type":"Point","coordinates":[114.137360845605,22.7040378693806]},"properties":{"ID":36,"region":"龙岗区","phone":"-","name":"深圳市龙岗区第五人民医院（原平湖人民医院）","address":"深圳市龙岗区平湖街道双拥街77号","rank":"二级","lng":114.137360846,"lat":22.7040378694}},
{"type":"Feature","geometry":{"type":"Point","coordinates":[113.846229731617,22.6946291307987]},"properties":{"ID":37,"region":"宝安区","phone":"-","name":"深圳市宝安区福永人民医院","address":"宝安区福永街道德丰路81号和凤凰社区路口107国道旁","rank":"二级","lng":113.846229732,"lat":22.6946291308}},
{"type":"Feature","geometry":{"type":"Point","coordinates":[113.852087402184,22.7742989765059]},"properties":{"ID":38,"region":"宝安区","phone":"-","name":"深圳市宝安区石岩人民医院","address":"宝安区石岩街道吉祥路11号","rank":"二级","lng":113.852087402,"lat":22.7742989765}},
{"type":"Feature","geometry":{"type":"Point","coordinates":[114.218666387456,22.6542161724368]},"properties":{"ID":39,"region":"龙岗区","phone":"-","name":"深圳市龙岗区第三人民医院（原横岗人民医院）","address":"深圳市龙岗区横岗街道松柏路278号","rank":"二级","lng":114.218666387,"lat":22.6542161724}},
{"type":"Feature","geometry":{"type":"Point","coordinates":[114.117776797358,22.6189210320118]},"properties":{"ID":40,"region":"龙岗区","phone":"-","name":"深圳市龙岗区第二人民医院（原布吉人民医院）","address":"龙岗区布吉街道吉华路175号","rank":"二级","lng":114.117776797,"lat":22.618921032}},
{"type":"Feature","geometry":{"type":"Point","coordinates":[114.357835739729,22.693320184251]},"properties":{"ID":41,"region":"坪山区","phone":"-","name":"深圳市坪山区人民医院","address":"深圳市坪山区坪山街道办事处人民街19号","rank":"二级","lng":114.35783574,"lat":22.6933201843}},
{"type":"Feature","geometry":{"type":"Point","coordinates":[114.500972009133,22.5404541230796]},"properties":{"ID":42,"region":"大鹏新区","phone":"-","name":"深圳市大鹏新区南澳人民医院","address":"深圳市大鹏新区南澳办事处人民路6号","rank":"二级","lng":114.500972009,"lat":22.5404541231}},
{"type":"Feature","geometry":{"type":"Point","coordinates":[114.27263703163,22.7476047906812]},"properties":{"ID":43,"region":"龙岗区","phone":"-","name":"深圳市龙岗区骨科医院","address":"龙岗区龙岗街道杨梅岗新生西路243号","rank":"二级","lng":114.272637032,"lat":22.7476047907}},
{"type":"Feature","geometry":{"type":"Point","coordinates":[114.05518727114,22.5250223093609]},"properties":{"ID":44,"region":"福田区","phone":"-","name":"深圳市福田区妇幼保健院","address":"深圳市福田区金田南路1019、2002号和新洲南路石厦四街233号东侧1至5楼","rank":"二级","lng":114.055187271,"lat":22.5250223094}},
{"type":"Feature","geometry":{"type":"Point","coordinates":[114.491974131996,22.6008529979404]},"properties":{"ID":45,"region":"大鹏新区","phone":"-","name":"深圳市大鹏新区妇幼保健院","address":"深圳市大鹏新区大鹏办事处鹏新东路149号","rank":"二级","lng":114.491974132,"lat":22.6008529979}},
{"type":"Feature","geometry":{"type":"Point","coordinates":[114.009269134159,22.673938963345]},"properties":{"ID":46,"region":"龙华区","phone":"-","name":"深圳军龙医院","address":"深圳市龙华区龙华街道华达路13号","rank":"二级","lng":114.009269134,"lat":22.6739389633}},
{"type":"Feature","geometry":{"type":"Point","coordinates":[114.077239054453,22.6621464659317]},"properties":{"ID":47,"region":"龙岗区","phone":"-","name":"深圳肖传国医院","address":"深圳市龙岗区坂田街道坂雪岗大道4035号","rank":"二级","lng":114.077239054,"lat":22.6621464659}},
{"type":"Feature","geometry":{"type":"Point","coordinates":[113.878681736798,22.5814064663863]},"properties":{"ID":48,"region":"宝安区","phone":"-","name":"深圳同仁妇产医院","address":"深圳市宝安区西乡街道宝安大道3180、3186、3188号","rank":"二级","lng":113.878681737,"lat":22.5814064664}},
{"type":"Feature","geometry":{"type":"Point","coordinates":[114.132512331447,22.5458828965405]},"properties":{"ID":49,"region":"罗湖区","phone":"-","name":"深圳流花医院","address":"罗湖区春风路2069号","rank":"二级","lng":114.132512331,"lat":22.5458828965}},
{"type":"Feature","geometry":{"type":"Point","coordinates":[114.103708434771,22.5450574331444]},"properties":{"ID":50,"region":"福田区","phone":"-","name":"深圳欢乐口腔医院","address":"深圳市福田区上步南路佳兆业中心一层101、2层","rank":"二级","lng":114.103708435,"lat":22.5450574331}},
{"type":"Feature","geometry":{"type":"Point","coordinates":[114.123777567993,22.5388872448497]},"properties":{"ID":51,"region":"罗湖区","phone":"-","name":"深圳爱康健口腔医院","address":"深圳市罗湖区建设路罗湖火车站大楼C区1-2楼北侧、4-8楼","rank":"二级","lng":114.123777568,"lat":22.5388872448}},
{"type":"Feature","geometry":{"type":"Point","coordinates":[114.093817641956,22.541343620563]},"properties":{"ID":52,"region":"福田区","phone":"-","name":"深圳爱尔眼科医院","address":"福田区华强南路2048号机械大厦","rank":"二级","lng":114.093817642,"lat":22.5413436206}},
{"type":"Feature","geometry":{"type":"Point","coordinates":[114.252099072762,22.7161447880241]},"properties":{"ID":53,"region":"龙岗区","phone":"-","name":"深圳港龙妇产医院","address":"深圳市龙岗区龙城街道龙岗大道（龙岗段）3012号宏昌大厦A栋、B栋1-5楼。","rank":"二级","lng":114.252099073,"lat":22.716144788}},
{"type":"Feature","geometry":{"type":"Point","coordinates":[114.11786519062,22.5572853294786]},"properties":{"ID":54,"region":"罗湖区","phone":"-","name":"深圳怡康妇产医院","address":"深圳市罗湖区桂园街道红桂路1018号武汉大厦1-8层","rank":"二级","lng":114.117865191,"lat":22.5572853295}},
{"type":"Feature","geometry":{"type":"Point","coordinates":[114.101071099625,22.5430839612395]},"properties":{"ID":55,"region":"福田区","phone":"-","name":"深圳市福田区肛肠专科医院","address":"深圳市福田区南园街道松岭路1、6号","rank":"二级","lng":114.1010711,"lat":22.5430839612}},
{"type":"Feature","geometry":{"type":"Point","coordinates":[113.934469563188,22.527732982214]},"properties":{"ID":56,"region":"南山区","phone":"-","name":"深圳太平洋口腔医院","address":"深圳市南山区南山街道南海大道2289南海大道西、海德二道北东华产品检测中心","rank":"二级","lng":113.934469563,"lat":22.5277329822}},
{"type":"Feature","geometry":{"type":"Point","coordinates":[114.110300919245,22.5614521932092]},"properties":{"ID":57,"region":"福田区","phone":"-","name":"深圳拜博拜尔口腔医院","address":"深圳市福田区园岭街道红岭中路2061号南国大厦1、2楼","rank":"二级","lng":114.110300919,"lat":22.5614521932}},
{"type":"Feature","geometry":{"type":"Point","coordinates":[114.121097204013,22.5475485783462]},"properties":{"ID":58,"region":"罗湖区","phone":"-","name":"深圳爱视眼科医院","address":"深圳市罗湖区南湖街道和平路宝平街1号1-5层及附楼1-2层","rank":"二级","lng":114.121097204,"lat":22.5475485783}},
{"type":"Feature","geometry":{"type":"Point","coordinates":[114.137360845605,22.7040378693806]},"properties":{"ID":59,"region":"龙岗区","phone":"0755-28450631","name":"深圳市龙岗区第五人民医院","address":"深圳市龙岗区平湖镇双拥街77号","rank":"二级","lng":114.137360846,"lat":22.7040378694}},
{"type":"Feature","geometry":{"type":"Point","coordinates":[114.050498565532,22.714318984689]},"properties":{"ID":60,"region":"龙华新区","phone":"0755-28024426","name":"深圳市龙华新区中心医院","address":"深圳市宝安区观澜大道西","rank":"二级","lng":114.050498566,"lat":22.7143189847}},
{"type":"Feature","geometry":{"type":"Point","coordinates":[113.937519130733,22.4926941483621]},"properties":{"ID":61,"region":"南山区","phone":"0755-26667715","name":"深圳市南山区妇幼保健院","address":"深圳市南山区湾厦路1号","rank":"二级","lng":113.937519131,"lat":22.4926941484}},
{"type":"Feature","geometry":{"type":"Point","coordinates":[114.062639433987,22.5540871904236]},"properties":{"ID":62,"region":"福田区","phone":"0755-83936132","name":"深圳市儿童医院","address":"深圳市红荔西路益田路口7019号","rank":"二级","lng":114.062639434,"lat":22.5540871904}},
{"type":"Feature","geometry":{"type":"Point","coordinates":[114.222398577357,22.7136378963122]},"properties":{"ID":63,"region":"龙岗区","phone":"89911830","name":"深圳市龙岗区中医院","address":"深圳市龙岗区体育新城大运路1号","rank":"二级","lng":114.222398577,"lat":22.7136378963}},
{"type":"Feature","geometry":{"type":"Point","coordinates":[113.886610899871,22.5855979531798]},"properties":{"ID":64,"region":"宝安区","phone":"0755-27956611","name":"深圳市宝安区中心医院","address":"深圳市宝安区西乡镇乐园街60号","rank":"二级","lng":113.8866109,"lat":22.5855979532}},
{"type":"Feature","geometry":{"type":"Point","coordinates":[114.143271606028,22.5824811504369]},"properties":{"ID":65,"region":"罗湖区","phone":"0755-25519895","name":"深圳市罗湖区妇幼保健院","address":"深圳市罗湖区太白路2013号","rank":"二级","lng":114.143271606,"lat":22.5824811504}},
{"type":"Feature","geometry":{"type":"Point","coordinates":[114.132512331447,22.5458828965405]},"properties":{"ID":66,"region":"罗湖区","phone":"0755-82221837","name":"深圳流花医院","address":"深圳市春风路2069号","rank":"二级","lng":114.132512331,"lat":22.5458828965}},
{"type":"Feature","geometry":{"type":"Point","coordinates":[114.135545010848,22.6413640641739]},"properties":{"ID":67,"region":"龙岗区","phone":"0755-61222333-6311","name":"深圳市第三人民医院","address":"深圳市龙岗区布澜路29号","rank":"二级","lng":114.135545011,"lat":22.6413640642}},
{"type":"Feature","geometry":{"type":"Point","coordinates":[114.120235998521,22.5594841317279]},"properties":{"ID":68,"region":"罗湖区","phone":"0755-25561478","name":"深圳市职业病防治院","address":"深圳市罗湖区桂园北路70号","rank":"二级","lng":114.120235999,"lat":22.5594841317}},
{"type":"Feature","geometry":{"type":"Point","coordinates":[114.312644864115,22.7200920127782]},"properties":{"ID":69,"region":"罗湖区","phone":"0755-82238541","name":"深圳市罗湖区中医院","address":"深圳市乐园路83号","rank":"二级","lng":114.312644864,"lat":22.7200920128}},
{"type":"Feature","geometry":{"type":"Point","coordinates":[114.071187349895,22.5284842728241]},"properties":{"ID":70,"region":"福田区","phone":"0755-83836319","name":"深圳市福田区妇幼保健院","address":"深圳市金田路1019号","rank":"二级","lng":114.07118735,"lat":22.5284842728}},
{"type":"Feature","geometry":{"type":"Point","coordinates":[113.89042744066,22.5600329089245]},"properties":{"ID":71,"region":"宝安区","phone":"0755-27396163","name":"深圳市宝安区福永人民医院","address":"深圳市宝安区福永镇德丰路81号","rank":"二级","lng":113.890427441,"lat":22.5600329089}},
{"type":"Feature","geometry":{"type":"Point","coordinates":[114.122399208019,22.6118019349668]},"properties":{"ID":72,"region":"龙岗区","phone":"0755-28871625","name":"深圳市龙岗区第二人民医院","address":"深圳市龙岗区布吉镇吉华路175号","rank":"二级","lng":114.122399208,"lat":22.611801935}},
{"type":"Feature","geometry":{"type":"Point","coordinates":[113.903757036796,22.7629204337417]},"properties":{"ID":73,"region":"光明新区","phone":"0755-27732924","name":"深圳市光明新区人民医院","address":"深圳市宝安区公明镇松白路公明段339号","rank":"二级","lng":113.903757037,"lat":22.7629204337}},
{"type":"Feature","geometry":{"type":"Point","coordinates":[113.945950266924,22.7628528660928]},"properties":{"ID":74,"region":"光明新区","phone":"0755-27400061","name":"深圳市光明新区中心医院","address":"光明新区光明街道华夏路39号","rank":"二级","lng":113.945950267,"lat":22.7628528661}},
{"type":"Feature","geometry":{"type":"Point","coordinates":[113.818248323465,22.7391317828208]},"properties":{"ID":75,"region":"宝安区","phone":"0755-27728595","name":"深圳市宝安区沙井人民医院","address":"深圳市宝安区沙井街道沙井大街3号","rank":"二级","lng":113.818248323,"lat":22.7391317828}},
{"type":"Feature","geometry":{"type":"Point","coordinates":[114.218666387456,22.6542161724368]},"properties":{"ID":76,"region":"龙岗区","phone":"0755-28863382","name":"深圳市龙岗区第三人民医院","address":"深圳市龙岗区横岗镇松柏路278号","rank":"二级","lng":114.218666387,"lat":22.6542161724}},
{"type":"Feature","geometry":{"type":"Point","coordinates":[114.141966817275,22.5806583871775]},"properties":{"ID":77,"region":"罗湖区","phone":"0755-25503999","name":"深圳市慢性病防治中心","address":"深圳市布心路2021号","rank":"二级","lng":114.141966817,"lat":22.5806583872}},
{"type":"Feature","geometry":{"type":"Point","coordinates":[114.357835739729,22.693320184251]},"properties":{"ID":78,"region":"坪山新区","phone":"0755-84601781","name":"深圳市坪山新区人民医院","address":"深圳市龙岗区坪山镇人民街19号","rank":"二级","lng":114.35783574,"lat":22.6933201843}},
{"type":"Feature","geometry":{"type":"Point","coordinates":[114.240143524734,22.5629619083168]},"properties":{"ID":79,"region":"盐田区","phone":"0755-25552422","name":"深圳市盐田区人民医院","address":"深圳市盐田区沙头角梧桐路2032号","rank":"二级","lng":114.240143525,"lat":22.5629619083}},
{"type":"Feature","geometry":{"type":"Point","coordinates":[114.128484778694,22.5449783245826]},"properties":{"ID":80,"region":"罗湖区","phone":"0755-82230056","name":"深圳市罗湖区人民医院","address":"深圳市罗湖区友谊路","rank":"二级","lng":114.128484779,"lat":22.5449783246}},
{"type":"Feature","geometry":{"type":"Point","coordinates":[114.242092488368,22.7339192254335]},"properties":{"ID":81,"region":"龙岗区","phone":"0755-28933050","name":"深圳市龙岗区妇幼保健院","address":"深圳市龙岗区中心城爱龙路6号","rank":"二级","lng":114.242092488,"lat":22.7339192254}},
{"type":"Feature","geometry":{"type":"Point","coordinates":[114.018555630083,22.6459672983744]},"properties":{"ID":82,"region":"龙华新区","phone":"0755-27741585","name":"深圳市龙华新区人民医院","address":"深圳市宝安区龙华镇建设东路","rank":"二级","lng":114.01855563,"lat":22.6459672984}},
{"type":"Feature","geometry":{"type":"Point","coordinates":[113.892693236647,22.5606732991656]},"properties":{"ID":83,"region":"宝安区","phone":"0755-27863999","name":"深圳市宝安区妇幼保健院","address":"深圳市宝安中心区玉律路56号","rank":"二级","lng":113.892693237,"lat":22.5606732992}},
{"type":"Feature","geometry":{"type":"Point","coordinates":[113.89042744066,22.5600329089245]},"properties":{"ID":84,"region":"宝安区","phone":"0755-27717273","name":"深圳市宝安区松岗人民医院","address":"深圳市宝安区松岗镇沙江路2号","rank":"二级","lng":113.890427441,"lat":22.5600329089}},
{"type":"Feature","geometry":{"type":"Point","coordinates":[114.295380510185,22.7308682449167]},"properties":{"ID":85,"region":"龙岗区","phone":"0755-84806933","name":"深圳市龙岗中心医院","address":"深圳市龙岗区龙岗街道龙岗大道（龙岗段）6082号","rank":"三级","lng":114.29538051,"lat":22.7308682449}},
{"type":"Feature","geometry":{"type":"Point","coordinates":[114.234507645797,22.7325713258644]},"properties":{"ID":86,"region":"龙岗区","phone":"0755-28932833","name":"深圳市龙岗区人民医院","address":"深圳市龙岗区龙城街道爱心路53号","rank":"三级","lng":114.234507646,"lat":22.7325713259}},
{"type":"Feature","geometry":{"type":"Point","coordinates":[114.222398577357,22.7136378963122]},"properties":{"ID":87,"region":"龙岗区","phone":"0755-89911830","name":"深圳市龙岗区中医院","address":"深圳市龙岗区体育新城大运路1号","rank":"三级","lng":114.222398577,"lat":22.7136378963}},
{"type":"Feature","geometry":{"type":"Point","coordinates":[114.038297,22.660184]},"properties":{"ID":88,"region":"龙华区","phone":"0755-27741585","name":"深圳市龙华区人民医院","address":"深圳市龙华区龙华街道景龙建设路38号、景龙建设路70号（艾柏士楼商办楼首层106号商铺、一楼分隔北侧房屋、二楼房屋及三楼房屋）和景龙建设路74号（允强商厦整栋）","rank":"三级","lng":114.038297,"lat":22.660184}},
{"type":"Feature","geometry":{"type":"Point","coordinates":[114.047085004596,22.7189346599432]},"properties":{"ID":89,"region":"龙华区","phone":"0755-28024426","name":"深圳市龙华区中心医院","address":"深圳市龙华区福城街道观澜大道187号、185-4号、212号1-2楼和松元围新围七巷1号2-5楼","rank":"三级","lng":114.047085005,"lat":22.7189346599}},
{"type":"Feature","geometry":{"type":"Point","coordinates":[113.927637949787,22.5318882301518]},"properties":{"ID":90,"region":"南山区","phone":"0755-26667715","name":"深圳市南山区妇幼保健院","address":"深圳市南山区蛇口湾厦路1号、深圳市南山区常兴路11号和157号2楼西侧","rank":"三级","lng":113.92763795,"lat":22.5318882302}},
{"type":"Feature","geometry":{"type":"Point","coordinates":[113.909569792088,22.7614668470314]},"properties":{"ID":91,"region":"光明区","phone":"0755-81767195","name":"中国科学院大学深圳医院（光明）","address":"深圳市光明新区马田街道松白路将石段4253号、4221号和光明街道华夏路39号","rank":"三级","lng":113.909569792,"lat":22.761466847}},
{"type":"Feature","geometry":{"type":"Point","coordinates":[114.112734967854,22.5445848672883]},"properties":{"ID":92,"region":"罗湖区","phone":"0755-82247153","name":"深圳平乐骨伤科医院","address":"深圳市罗湖区金塘街40号、45号及金华街15号，坪山区坑梓街道坪山大道坑梓段252号","rank":"三级","lng":114.112734968,"lat":22.5445848673}},
{"type":"Feature","geometry":{"type":"Point","coordinates":[113.890040630307,22.5866890383554]},"properties":{"ID":93,"region":"宝安区","phone":"0755-27791111","name":"深圳恒生医院","address":"深圳市宝安区西乡街道银田路20号","rank":"三级","lng":113.89004063,"lat":22.5866890384}},
{"type":"Feature","geometry":{"type":"Point","coordinates":[114.150415829747,22.6931883969811]},"properties":{"ID":94,"region":"龙岗区","phone":"0755-84698083","name":"深圳华侨医院","address":"深圳市龙岗区平湖街道湖新街1号","rank":"三级","lng":114.15041583,"lat":22.693188397}},
{"type":"Feature","geometry":{"type":"Point","coordinates":[114.23767605916,22.7087836671738]},"properties":{"ID":95,"region":"龙岗区","phone":"0755-28988003","name":"深圳龙城医院","address":"深圳市龙岗区龙翔大道5132号、龙城街道晨光路128号","rank":"三级","lng":114.237676059,"lat":22.7087836672}},
{"type":"Feature","geometry":{"type":"Point","coordinates":[114.047797810018,22.5600175562095]},"properties":{"ID":96,"region":"福田区","phone":"0755-88661666","name":"深圳华厦眼科医院","address":"深圳市福田区莲花街道康欣社区莲花路2032-1号汇邦大厦一层、四-八层、十一层、十二层","rank":"三级","lng":114.04779781,"lat":22.5600175562}},
{"type":"Feature","geometry":{"type":"Point","coordinates":[113.993909001475,22.6007150316751]},"properties":{"ID":97,"region":"南山区","phone":"0755-61968586","name":"深圳大学总医院","address":"深圳市南山区桃源街道大学城学苑大道1098号","rank":"三级","lng":113.993909001,"lat":22.6007150317}},
{"type":"Feature","geometry":{"type":"Point","coordinates":[114.359397982841,22.7062479670802]},"properties":{"ID":98,"region":"坪山区","phone":"0755-21589999","name":"深圳市萨米医疗中心","address":"深圳市坪山区坪山街道金牛西路1号","rank":"三级","lng":114.359397983,"lat":22.7062479671}},
{"type":"Feature","geometry":{"type":"Point","coordinates":[113.938107880164,22.7896494909631]},"properties":{"ID":99,"region":"光明区","phone":"1569249315","name":"中山大学附属第七医院（深圳）","address":"深圳市光明新区新湖街道圳园路628号","rank":"三级","lng":113.93810788,"lat":22.789649491}},
{"type":"Feature","geometry":{"type":"Point","coordinates":[113.9024127226,22.5746009383102]},"properties":{"ID":100,"region":"宝安区","phone":"0755-27863999","name":"深圳市宝安区妇幼保健院","address":"深圳市宝安区新安街道玉律路56号","rank":"三级","lng":113.902412723,"lat":22.5746009383}},
{"type":"Feature","geometry":{"type":"Point","coordinates":[114.242092488368,22.7339192254335]},"properties":{"ID":101,"region":"龙岗区","phone":"0755-28933050","name":"深圳市龙岗区妇幼保健院","address":"深圳市龙岗区龙城街道中心城爱龙路6号","rank":"三级","lng":114.242092488,"lat":22.7339192254}},
{"type":"Feature","geometry":{"type":"Point","coordinates":[114.130248781224,22.5499322845876]},"properties":{"ID":102,"region":"罗湖区","phone":"0755-82613328","name":"深圳远东妇产医院","address":"深圳市罗湖区南湖街道深南东路2097号","rank":"三级","lng":114.130248781,"lat":22.5499322846}},
{"type":"Feature","geometry":{"type":"Point","coordinates":[114.143271606028,22.5824811504369]},"properties":{"ID":103,"region":"罗湖区","phone":"0755-25519895","name":"深圳市罗湖区妇幼保健院","address":"深圳市罗湖区东晓街道太白路2013号、东晓北路2005号","rank":"三级","lng":114.143271606,"lat":22.5824811504}},
{"type":"Feature","geometry":{"type":"Point","coordinates":[113.99267562801,22.5682527879464]},"properties":{"ID":104,"region":"罗湖区","phone":"0755-25533018","name":"深圳市人民医院","address":"深圳市罗湖区东门北路1017号大院和深圳市南山区龙苑路16号龙珠医院门诊楼一楼东、西侧；深圳市深南东路3046号","rank":"三级","lng":113.992675628,"lat":22.5682527879}},
{"type":"Feature","geometry":{"type":"Point","coordinates":[114.092460481992,22.5626072177158]},"properties":{"ID":105,"region":"福田区","phone":"0755-83366388","name":"深圳市第二人民医院","address":"深圳市福田区笋岗西路3002号","rank":"三级","lng":114.092460482,"lat":22.5626072177}},
{"type":"Feature","geometry":{"type":"Point","coordinates":[114.056377346279,22.5608512728835]},"properties":{"ID":106,"region":"福田区","phone":"0755-83923333","name":"北京大学深圳医院","address":"深圳市福田区莲花路1120号","rank":"三级","lng":114.056377346,"lat":22.5608512729}},
{"type":"Feature","geometry":{"type":"Point","coordinates":[114.001542801696,22.5292468260626]},"properties":{"ID":107,"region":"福田区","phone":"86913333--8171","name":"香港大学深圳医院","address":"深圳市福田区海园一路1号","rank":"三级","lng":114.001542802,"lat":22.5292468261}},
{"type":"Feature","geometry":{"type":"Point","coordinates":[114.096858136615,22.7190999252336]},"properties":{"ID":108,"region":"宝安区","phone":"13710898870","name":"南方医科大学深圳医院","address":"深圳市宝安区新湖路1333号","rank":"三级","lng":114.096858137,"lat":22.7190999252}},
{"type":"Feature","geometry":{"type":"Point","coordinates":[114.12360105096,22.5477758858839]},"properties":{"ID":109,"region":"福田区","phone":"0755-83334009","name":"深圳市中医院","address":"深圳市福华路1号/罗湖区解放路3015号/罗湖区迎春路15号","rank":"三级","lng":114.123601051,"lat":22.5477758859}},
{"type":"Feature","geometry":{"type":"Point","coordinates":[114.135545010848,22.6413640641739]},"properties":{"ID":110,"region":"龙岗区","phone":"0755-61222333-6311","name":"深圳市第三人民医院","address":"深圳市龙岗区布澜路29号","rank":"三级","lng":114.135545011,"lat":22.6413640642}},
{"type":"Feature","geometry":{"type":"Point","coordinates":[114.13713007092,22.5705418538632]},"properties":{"ID":111,"region":"罗湖区","phone":"0755-25533524","name":"深圳市康宁医院","address":"罗湖区翠竹路1080号","rank":"三级","lng":114.137130071,"lat":22.5705418539}},
{"type":"Feature","geometry":{"type":"Point","coordinates":[114.061389711362,22.5530698580817]},"properties":{"ID":112,"region":"福田区","phone":"0755-83936132","name":"深圳市儿童医院","address":"深圳市福田区莲花街道益田路7019号","rank":"三级","lng":114.061389711,"lat":22.5530698581}},
{"type":"Feature","geometry":{"type":"Point","coordinates":[114.020908022721,22.5523720231184]},"properties":{"ID":113,"region":"福田区","phone":"0755-23959523","name":"深圳市眼科医院","address":"深圳市福田区香蜜湖街道泽田路18号","rank":"三级","lng":114.020908023,"lat":22.5523720231}},
{"type":"Feature","geometry":{"type":"Point","coordinates":[113.952411508964,22.5627735077314]},"properties":{"ID":114,"region":"罗湖区","phone":"0755-25509566","name":"深圳市孙逸仙心血管医院","address":"罗湖区东门北路1021号和深圳市南山区朗山路12号","rank":"三级","lng":113.952411509,"lat":22.5627735077}},
{"type":"Feature","geometry":{"type":"Point","coordinates":[114.055020006654,22.5238952598667]},"properties":{"ID":115,"region":"福田区","phone":"0755-82226227","name":"深圳市妇幼保健院","address":"福田区红荔路2004号、福强路3012号","rank":"三级","lng":114.055020007,"lat":22.5238952599}},
{"type":"Feature","geometry":{"type":"Point","coordinates":[114.288619054444,22.6946902307775]},"properties":{"ID":116,"region":"龙岗区","phone":"0755-66618168","name":"中国医学科学院肿瘤医院深圳医院","address":"深圳市龙岗区宝荷大道西侧","rank":"三级","lng":114.288619054,"lat":22.6946902308}},
{"type":"Feature","geometry":{"type":"Point","coordinates":[114.128465015973,22.5447469234311]},"properties":{"ID":117,"region":"罗湖区","phone":"0755-82230056","name":"深圳市罗湖区人民医院","address":"深圳市罗湖区南湖街道友谊路47号","rank":"三级","lng":114.128465016,"lat":22.5447469234}},
{"type":"Feature","geometry":{"type":"Point","coordinates":[114.086018104369,22.5452375968814]},"properties":{"ID":118,"region":"福田区","phone":"0755-83339603","name":"中山大学附属第八医院（深圳福田）","address":"福田区深南中路3025号","rank":"三级","lng":114.086018104,"lat":22.5452375969}},
{"type":"Feature","geometry":{"type":"Point","coordinates":[114.048895000367,22.5650351319271]},"properties":{"ID":119,"region":"福田区","phone":"0755-83548566","name":"广州中医药大学深圳医院（福田）深圳市福田区中医院","address":"深圳市福田区北环大道6001号","rank":"三级","lng":114.048895,"lat":22.5650351319}},
{"type":"Feature","geometry":{"type":"Point","coordinates":[113.930816693664,22.5373434649874]},"properties":{"ID":120,"region":"南山区","phone":"0755-26553111-25517","name":"深圳市南山区人民医院","address":"深圳市南山区桃园路89号","rank":"三级","lng":113.930816694,"lat":22.537343465}},
{"type":"Feature","geometry":{"type":"Point","coordinates":[113.936539169252,22.5385001957843]},"properties":{"ID":121,"region":"南山区","phone":"0755-26866176","name":"深圳市南山区蛇口人民医院","address":"深圳市南山区蛇口工业区七路36号","rank":"三级","lng":113.936539169,"lat":22.5385001958}},
{"type":"Feature","geometry":{"type":"Point","coordinates":[113.910543734921,22.5750540723152]},"properties":{"ID":122,"region":"宝安区","phone":"0755-27788311","name":"深圳市宝安区人民医院","address":"深圳市宝安区新安街道龙井二路118号、创业二路4号A、B栋","rank":"三级","lng":113.910543735,"lat":22.5750540723}},
{"type":"Feature","geometry":{"type":"Point","coordinates":[113.89042744066,22.5600329089245]},"properties":{"ID":123,"region":"宝安区","phone":"0755-27728595","name":"深圳市宝安区沙井人民医院","address":"宝安区沙井大街3号","rank":"三级","lng":113.890427441,"lat":22.5600329089}},
{"type":"Feature","geometry":{"type":"Point","coordinates":[113.902169121396,22.5873573122375]},"properties":{"ID":124,"region":"宝安区","phone":"0755-27802422","name":"深圳市宝安区中医院","address":"深圳市宝安区裕安二路25号、宝安区新安四路86号","rank":"三级","lng":113.902169121,"lat":22.5873573122}}
]}