{"type":"FeatureCollection", "features": [
{"type":"Feature","geometry":{"type":"Point","coordinates":[114.3084,22.7723]},"properties":{"id":1,"address":"坪地街道龙岗大道（坪地段)2023号","Field3":"龙岗区","name":"坪地中学","phone":13570800757,"lng":114.3084,"lat":22.7723,"capacity":800}},
{"type":"Feature","geometry":{"type":"Point","coordinates":[114.3093,22.7779]},"properties":{"id":2,"address":"坪地街道兴华路85号","Field3":"龙岗区","name":"坪地兰陵学校（坪地一小）","phone":13316440028,"lng":114.3093,"lat":22.7779,"capacity":500}},
{"type":"Feature","geometry":{"type":"Point","coordinates":[114.3224,22.7786]},"properties":{"id":3,"address":"坪地街道富强路1号","Field3":"龙岗区","name":"坪地第二小学","phone":18038084869,"lng":114.3224,"lat":22.7786,"capacity":500}},
{"type":"Feature","geometry":{"type":"Point","coordinates":[114.3591,22.7191]},"properties":{"id":4,"address":"坪地街道龙岗大道坪地段2012号","Field3":"龙岗区","name":"文体服务中心","phone":18575586686,"lng":114.3591,"lat":22.7191,"capacity":100}},
{"type":"Feature","geometry":{"type":"Point","coordinates":[114.337,22.7064]},"properties":{"id":5,"address":"坪地街道坪西社区富泰南路8号（坪西社区党群服务中心）","Field3":"龙岗区","name":"坪西社区临时避险中心","phone":15818777400,"lng":114.337,"lat":22.7064,"capacity":50}},
{"type":"Feature","geometry":{"type":"Point","coordinates":[114.337,22.7064]},"properties":{"id":6,"address":"坪地街道中心社区湖田路8号","Field3":"龙岗区","name":"中心社区临时避险中心（居委）","phone":13510702881,"lng":114.337,"lat":22.7064,"capacity":50}},
{"type":"Feature","geometry":{"type":"Point","coordinates":[114.337,22.7064]},"properties":{"id":7,"address":"坪地街道六联社区鹤鸣西路18号","Field3":"龙岗区","name":"六联社区临时避险中心（居委）","phone":15986658962,"lng":114.337,"lat":22.7064,"capacity":80}},
{"type":"Feature","geometry":{"type":"Point","coordinates":[114.337,22.7064]},"properties":{"id":8,"address":"坪地街道同心南路78号","Field3":"龙岗区","name":"坪东社区临时避险中心","phone":13798246779,"lng":114.337,"lat":22.7064,"capacity":200}},
{"type":"Feature","geometry":{"type":"Point","coordinates":[114.337,22.7064]},"properties":{"id":9,"address":"坪地街道年丰社区坪梓路21号","Field3":"龙岗区","name":"年丰社区临时避险中心","phone":15914151190,"lng":114.337,"lat":22.7064,"capacity":80}},
{"type":"Feature","geometry":{"type":"Point","coordinates":[114.337,22.7064]},"properties":{"id":10,"address":"坪地街道西湖塘街6号","Field3":"龙岗区","name":"四方埔社区临时避险中心","phone":13510551527,"lng":114.337,"lat":22.7064,"capacity":50}},
{"type":"Feature","geometry":{"type":"Point","coordinates":[114.337,22.7064]},"properties":{"id":11,"address":"坪地街道坪地社区湖田路66号","Field3":"龙岗区","name":"坪地社区临时避险中心","phone":13728653882,"lng":114.337,"lat":22.7064,"capacity":50}},
{"type":"Feature","geometry":{"type":"Point","coordinates":[114.337,22.7064]},"properties":{"id":12,"address":"坪地街道怡心社区文明东路21号","Field3":"龙岗区","name":"怡心社区临时避险中心","phone":13798322321,"lng":114.337,"lat":22.7064,"capacity":50}},
{"type":"Feature","geometry":{"type":"Point","coordinates":[114.3057,22.7878]},"properties":{"id":13,"address":"坪地街道教育北路72号","Field3":"龙岗区","name":"高桥社区临时避险中心","phone":13570883812,"lng":114.3057,"lat":22.7878,"capacity":90}},
{"type":"Feature","geometry":{"type":"Point","coordinates":[114.128,22.6006]},"properties":{"id":14,"address":"布吉街道荣华路192号","Field3":"龙岗区","name":"春蕾小学","phone":13823786820,"lng":114.128,"lat":22.6006,"capacity":500}},
{"type":"Feature","geometry":{"type":"Point","coordinates":[114.1362,22.6288]},"properties":{"id":15,"address":"布吉街道景园路1号","Field3":"龙岗区","name":"承翰学校","phone":13641423116,"lng":114.1362,"lat":22.6288,"capacity":1000}},
{"type":"Feature","geometry":{"type":"Point","coordinates":[114.1361,22.6095]},"properties":{"id":16,"address":"布吉街道木棉路36号","Field3":"龙岗区","name":"木棉湾实验学校","phone":18318875528,"lng":114.1361,"lat":22.6095,"capacity":500}},
{"type":"Feature","geometry":{"type":"Point","coordinates":[114.1213,22.6152]},"properties":{"id":17,"address":"布吉街道吉华路219号","Field3":"龙岗区","name":"布吉中学","phone":15920032516,"lng":114.1213,"lat":22.6152,"capacity":1000}},
{"type":"Feature","geometry":{"type":"Point","coordinates":[114.1222,22.6053]},"properties":{"id":18,"address":"布吉街道布吉路57号","Field3":"龙岗区","name":"布吉中心小学","phone":18126265137,"lng":114.1222,"lat":22.6053,"capacity":500}},
{"type":"Feature","geometry":{"type":"Point","coordinates":[114.1316,22.6012]},"properties":{"id":19,"address":"布吉街道百鸽路181号","Field3":"龙岗区","name":"信义假日名城小学","phone":13728881276,"lng":114.1316,"lat":22.6012,"capacity":500}},
{"type":"Feature","geometry":{"type":"Point","coordinates":[114.1074,22.5764]},"properties":{"id":20,"address":"布吉街道中兴路27号","Field3":"龙岗区","name":"中兴学校","phone":13928463216,"lng":114.1074,"lat":22.5764,"capacity":500}},
{"type":"Feature","geometry":{"type":"Point","coordinates":[113.9501,22.7708]},"properties":{"id":21,"address":"龙城街道松仔岭二路十七号城龙花园龙腾阁十一栋二楼","Field3":"龙岗区","name":"街道残疾人职康中心","phone":13684955612,"lng":113.9501,"lat":22.7708,"capacity":200}},
{"type":"Feature","geometry":{"type":"Point","coordinates":[114.2406,22.7323]},"properties":{"id":22,"address":"龙城街道夏长路金色沁园7栋1楼","Field3":"龙岗区","name":"愉园社区减灾防灾避险场所","phone":15815590020,"lng":114.2406,"lat":22.7323,"capacity":100}},
{"type":"Feature","geometry":{"type":"Point","coordinates":[114.2415,22.7081]},"properties":{"id":23,"address":"龙城街道爱联社区美晨路18号爱联公司办公大楼一楼及附楼一楼","Field3":"龙岗区","name":"爱联社区工作站","phone":13927434498,"lng":114.2415,"lat":22.7081,"capacity":350}},
{"type":"Feature","geometry":{"type":"Point","coordinates":[114.2242,22.7192]},"properties":{"id":24,"address":"龙城街道龙红格社区黄阁翠苑会所109号","Field3":"龙岗区","name":"龙红格社区工作站","phone":13510299900,"lng":114.2242,"lat":22.7192,"capacity":300}},
{"type":"Feature","geometry":{"type":"Point","coordinates":[114.2476,22.7338]},"properties":{"id":25,"address":"龙城街道城园路64号城市花园会所2楼","Field3":"龙岗区","name":"尚景社区","phone":15820451501,"lng":114.2476,"lat":22.7338,"capacity":100}},
{"type":"Feature","geometry":{"type":"Point","coordinates":[114.2478,22.7209]},"properties":{"id":26,"address":"龙城街道中心城吉祥路249号紫薇社区工作站","Field3":"龙岗区","name":"紫薇社区减灾防灾避险场所","phone":15920066114,"lng":114.2478,"lat":22.7209,"capacity":100}},
{"type":"Feature","geometry":{"type":"Point","coordinates":[114.2188,22.7181]},"properties":{"id":27,"address":"龙城街道龙飞大道669号天昊华庭A8栋二楼","Field3":"龙岗区","name":"黄阁坑社区工作站","phone":13728902456,"lng":114.2188,"lat":22.7181,"capacity":200}},
{"type":"Feature","geometry":{"type":"Point","coordinates":[114.2382,22.7379]},"properties":{"id":28,"address":"龙城街道长兴北路中央悦城15栋1楼","Field3":"龙岗区","name":"回龙埔社区减灾防灾避险场所","phone":18566251995,"lng":114.2382,"lat":22.7379,"capacity":50}},
{"type":"Feature","geometry":{"type":"Point","coordinates":[114.248,22.6853]},"properties":{"id":29,"address":"龙城街道嶂背路218号嶂二居民小组办公楼","Field3":"龙岗区","name":"嶂背社区工作站","phone":13418964294,"lng":114.248,"lat":22.6853,"capacity":100}},
{"type":"Feature","geometry":{"type":"Point","coordinates":[114.2545,22.726]},"properties":{"id":30,"address":"龙城街道中心城白湖路98号实验学校","Field3":"龙岗区","name":"龙岗区实验学校","phone":13714498179,"lng":114.2545,"lat":22.726,"capacity":250}},
{"type":"Feature","geometry":{"type":"Point","coordinates":[114.2639,22.7331]},"properties":{"id":31,"address":"龙城街道盛平社区盛龙路110号","Field3":"龙岗区","name":"天成学校","phone":13632978088,"lng":114.2639,"lat":22.7331,"capacity":300}},
{"type":"Feature","geometry":{"type":"Point","coordinates":[114.2422,22.7065]},"properties":{"id":32,"address":"龙城街道龙岗大道2065号","Field3":"龙岗区","name":"爱联小学","phone":13480830758,"lng":114.2422,"lat":22.7065,"capacity":250}},
{"type":"Feature","geometry":{"type":"Point","coordinates":[114.122,22.7064]},"properties":{"id":33,"address":"平湖街道山厦社区山厦路73号","Field3":"龙岗区","name":"山厦社区礼堂","phone":13922855322,"lng":114.122,"lat":22.7064,"capacity":500}},
{"type":"Feature","geometry":{"type":"Point","coordinates":[114.1251,22.6746]},"properties":{"id":34,"address":"平湖街道上木古社区彩姿南路26号","Field3":"龙岗区","name":"上木古社区临时避险场所","phone":13751021466,"lng":114.1251,"lat":22.6746,"capacity":50}},
{"type":"Feature","geometry":{"type":"Point","coordinates":[114.1265,22.6921]},"properties":{"id":35,"address":"平湖街道同富路8号禾花社区工作站6楼","Field3":"龙岗区","name":"禾花社区工作站","phone":13530166028,"lng":114.1265,"lat":22.6921,"capacity":100}},
{"type":"Feature","geometry":{"type":"Point","coordinates":[114.1628,22.6586]},"properties":{"id":36,"address":"平湖街道白坭坑社区白银路145号（文体服务中心内）","Field3":"龙岗区","name":"白坭坑临时避险场所","phone":13824321909,"lng":114.1628,"lat":22.6586,"capacity":400}},
{"type":"Feature","geometry":{"type":"Point","coordinates":[114.1616,22.6609]},"properties":{"id":37,"address":"平湖街道白坭坑社区新西路7号","Field3":"龙岗区","name":"白坭坑小学","phone":13926561803,"lng":114.1616,"lat":22.6609,"capacity":500}},
{"type":"Feature","geometry":{"type":"Point","coordinates":[113.8616,22.5952]},"properties":{"id":38,"address":"平湖街道力元吓力元路33号","Field3":"龙岗区","name":"力元吓文化中心","phone":13714063173,"lng":113.8616,"lat":22.5952,"capacity":100}},
{"type":"Feature","geometry":{"type":"Point","coordinates":[114.1623,22.6828]},"properties":{"id":39,"address":"平湖街道鹅公岭社区善德路79号","Field3":"龙岗区","name":"鹅公岭社区党群服务中心","phone":13826515284,"lng":114.1623,"lat":22.6828,"capacity":100}},
{"type":"Feature","geometry":{"type":"Point","coordinates":[114.1586,22.6881]},"properties":{"id":40,"address":"平湖街道鹅公岭社区向阳路10号鹅溪小学","Field3":"龙岗区","name":"鹅公岭社区鹅溪小学","phone":13826515284,"lng":114.1586,"lat":22.6881,"capacity":200}},
{"type":"Feature","geometry":{"type":"Point","coordinates":[113.8462,22.6946]},"properties":{"id":41,"address":"平湖街道凤凰社区凤凰大道297号（平湖中学）","Field3":"龙岗区","name":"凤凰社区临时避险场所","phone":13602585360,"lng":113.8462,"lat":22.6946,"capacity":200}},
{"type":"Feature","geometry":{"type":"Point","coordinates":[114.1138,22.6913]},"properties":{"id":42,"address":"平湖街道辅城坳社区岐新一路58号前面","Field3":"龙岗区","name":"辅城坳社区岐岭老人中心","phone":13682461306,"lng":114.1138,"lat":22.6913,"capacity":40}},
{"type":"Feature","geometry":{"type":"Point","coordinates":[114.114,22.7022]},"properties":{"id":43,"address":"平湖街道辅城坳平龙西路147号","Field3":"龙岗区","name":"辅城坳小学临时避险场所","phone":15914117002,"lng":114.114,"lat":22.7022,"capacity":250}},
{"type":"Feature","geometry":{"type":"Point","coordinates":[114.1507,22.6987]},"properties":{"id":44,"address":"平湖街道平湖社区高原路102号","Field3":"龙岗区","name":"兴文学校","phone":13509612412,"lng":114.1507,"lat":22.6987,"capacity":150}},
{"type":"Feature","geometry":{"type":"Point","coordinates":[114.1566,22.6725]},"properties":{"id":45,"address":"平湖街道良安田社区白天鹅路25号","Field3":"龙岗区","name":"良安田小学","phone":13266622688,"lng":114.1566,"lat":22.6725,"capacity":100}},
{"type":"Feature","geometry":{"type":"Point","coordinates":[114.1263,22.7117]},"properties":{"id":46,"address":"平湖街道山厦社区平安大道11号","Field3":"龙岗区","name":"平湖外国语学校","phone":13922855322,"lng":114.1263,"lat":22.7117,"capacity":800}},
{"type":"Feature","geometry":{"type":"Point","coordinates":[114.1381,22.6718]},"properties":{"id":47,"address":"平湖街道新木社区新木路229号党群服务中心三楼","Field3":"龙岗区","name":"新木社区党群服务中心","phone":13530051292,"lng":114.1381,"lat":22.6718,"capacity":40}},
{"type":"Feature","geometry":{"type":"Point","coordinates":[114.2845,22.7455]},"properties":{"id":48,"address":"龙岗街道新生路3号","Field3":"龙岗区","name":"新生小学","phone":15914027339,"lng":114.2845,"lat":22.7455,"capacity":500}},
{"type":"Feature","geometry":{"type":"Point","coordinates":[114.2841,22.7524]},"properties":{"id":49,"address":"龙岗街道新生社区丰田路23号","Field3":"龙岗区","name":"新梓学校","phone":15914027339,"lng":114.2841,"lat":22.7524,"capacity":500}},
{"type":"Feature","geometry":{"type":"Point","coordinates":[114.2748,22.7156]},"properties":{"id":50,"address":"龙岗街道南联社区植物园路168号","Field3":"龙岗区","name":"南联学校","phone":13502825332,"lng":114.2748,"lat":22.7156,"capacity":500}},
{"type":"Feature","geometry":{"type":"Point","coordinates":[114.2754,22.7412]},"properties":{"id":51,"address":"龙岗街道龙岗社区福宁路107号","Field3":"龙岗区","name":"振新小学","phone":13424286799,"lng":114.2754,"lat":22.7412,"capacity":500}},
{"type":"Feature","geometry":{"type":"Point","coordinates":[114.2563,22.7544]},"properties":{"id":52,"address":"龙岗街道龙西社区学园路12号","Field3":"龙岗区","name":"龙西小学","phone":13640945723,"lng":114.2563,"lat":22.7544,"capacity":500}},
{"type":"Feature","geometry":{"type":"Point","coordinates":[114.2453,22.7576]},"properties":{"id":53,"address":"龙岗街道五联社区齐心路47号","Field3":"龙岗区","name":"崇和学校","phone":13723459266,"lng":114.2453,"lat":22.7576,"capacity":500}},
{"type":"Feature","geometry":{"type":"Point","coordinates":[114.2756,22.7176]},"properties":{"id":54,"address":"龙岗街道平南社区碧新路2033号","Field3":"龙岗区","name":"平南社区避险中心","phone":13924679522,"lng":114.2756,"lat":22.7176,"capacity":100}},
{"type":"Feature","geometry":{"type":"Point","coordinates":[114.2923,22.7389]},"properties":{"id":55,"address":"龙岗街道龙岗社区居民委员会（杨田路1-1号）","Field3":"龙岗区","name":"\"龙岗社区党群服务中心避难场所\"","phone":13424286799,"lng":114.2923,"lat":22.7389,"capacity":100}},
{"type":"Feature","geometry":{"type":"Point","coordinates":[114.2387,22.7558]},"properties":{"id":56,"address":"龙岗街道五联社区千林山小学","Field3":"龙岗区","name":"千林山小学","phone":13798345621,"lng":114.2387,"lat":22.7558,"capacity":150}},
{"type":"Feature","geometry":{"type":"Point","coordinates":[114.2853,22.7427]},"properties":{"id":57,"address":"龙岗街道龙园路588号","Field3":"龙岗区","name":"龙岗中学","phone":13652323217,"lng":114.2853,"lat":22.7427,"capacity":500}},
{"type":"Feature","geometry":{"type":"Point","coordinates":[114.337,22.7064]},"properties":{"id":58,"address":"南湾街道瓦窑路1号市场2楼","Field3":"龙岗区","name":"上李朗社区临时避险中心","phone":13828781777,"lng":114.337,"lat":22.7064,"capacity":80}},
{"type":"Feature","geometry":{"type":"Point","coordinates":[114.337,22.7064]},"properties":{"id":59,"address":"南湾街道下李朗社区育才路1号下李朗小学","Field3":"龙岗区","name":"下李朗社区临时避险中心","phone":13530038913,"lng":114.337,"lat":22.7064,"capacity":150}},
{"type":"Feature","geometry":{"type":"Point","coordinates":[114.337,22.7064]},"properties":{"id":60,"address":"南湾街道南岭南路35号南岭村社区党群服务中心二楼","Field3":"龙岗区","name":"南岭村社区临时避险中心","phone":17722570392,"lng":114.337,"lat":22.7064,"capacity":100}},
{"type":"Feature","geometry":{"type":"Point","coordinates":[114.337,22.7064]},"properties":{"id":61,"address":"南湾街道丹竹头社区围肚11号党群服务中心1楼","Field3":"龙岗区","name":"丹竹头社区临时避险中心","phone":13751098822,"lng":114.337,"lat":22.7064,"capacity":80}},
{"type":"Feature","geometry":{"type":"Point","coordinates":[114.337,22.7064]},"properties":{"id":62,"address":"南湾街道翠山西十巷三号沙塘布社区老年人活动中心","Field3":"龙岗区","name":"沙塘布社区临时避险中心","phone":13823538137,"lng":114.337,"lat":22.7064,"capacity":50}},
{"type":"Feature","geometry":{"type":"Point","coordinates":[114.337,22.7064]},"properties":{"id":63,"address":"南湾街道吉厦社区党群服务中心六楼（裕昌路6号）","Field3":"龙岗区","name":"吉厦社区临时避险中心","phone":13691664728,"lng":114.337,"lat":22.7064,"capacity":150}},
{"type":"Feature","geometry":{"type":"Point","coordinates":[114.337,22.7064]},"properties":{"id":64,"address":"南湾街道厦村桂新三路2号办公室二楼（社区服务中心）","Field3":"龙岗区","name":"厦村社区临时避险中心","phone":13510247800,"lng":114.337,"lat":22.7064,"capacity":50}},
{"type":"Feature","geometry":{"type":"Point","coordinates":[114.337,22.7064]},"properties":{"id":65,"address":"南湾街道布沙路59号樟树布社区荔景大厦三楼（社区服务中心）","Field3":"龙岗区","name":"樟树布社区临时避险中心","phone":13826502522,"lng":114.337,"lat":22.7064,"capacity":50}},
{"type":"Feature","geometry":{"type":"Point","coordinates":[114.337,22.7064]},"properties":{"id":66,"address":"南湾街道沙湾社区兴华路66号二楼","Field3":"龙岗区","name":"沙湾社区临时避险中心","phone":13713585526,"lng":114.337,"lat":22.7064,"capacity":50}},
{"type":"Feature","geometry":{"type":"Point","coordinates":[114.337,22.7064]},"properties":{"id":67,"address":"南湾街道南龙社区南岭花园综合市场3楼（社区服务中心）","Field3":"龙岗区","name":"南龙社区临时避险中心","phone":13570881808,"lng":114.337,"lat":22.7064,"capacity":50}},
{"type":"Feature","geometry":{"type":"Point","coordinates":[114.337,22.7064]},"properties":{"id":68,"address":"南湾街道桂芳园凌波居D座附一楼（社区服务中心）","Field3":"龙岗区","name":"宝岭社区临时避险中心","phone":13510210256,"lng":114.337,"lat":22.7064,"capacity":50}},
{"type":"Feature","geometry":{"type":"Point","coordinates":[114.337,22.7064]},"properties":{"id":69,"address":"南湾街道布沙路140号一楼（社区服务中心）","Field3":"龙岗区","name":"南新社区临时避险中心","phone":18520862363,"lng":114.337,"lat":22.7064,"capacity":50}},
{"type":"Feature","geometry":{"type":"Point","coordinates":[114.337,22.7064]},"properties":{"id":70,"address":"南湾街道南湾学校","Field3":"龙岗区","name":"康乐社区临时避险中心","phone":13699818052,"lng":114.337,"lat":22.7064,"capacity":100}},
{"type":"Feature","geometry":{"type":"Point","coordinates":[114.337,22.7064]},"properties":{"id":71,"address":"南湾街道闽鹏程工业区二栋三楼(社区服务中心)","Field3":"龙岗区","name":"丹平社区临时避险中心","phone":13715307860,"lng":114.337,"lat":22.7064,"capacity":50}},
{"type":"Feature","geometry":{"type":"Point","coordinates":[114.0936,22.5537]},"properties":{"id":72,"address":"园岭西路6号","Field3":"福田区","name":"园岭街道文化站","phone":13544105166,"lng":114.0936,"lat":22.5537,"capacity":120}},
{"type":"Feature","geometry":{"type":"Point","coordinates":[114.1016,22.5562]},"properties":{"id":73,"address":"红荔路2002号4楼会议室","Field3":"福田区","name":"园岭街道办事处","phone":13590303135,"lng":114.1016,"lat":22.5562,"capacity":100}},
{"type":"Feature","geometry":{"type":"Point","coordinates":[114.1076,22.569]},"properties":{"id":74,"address":"八卦四路合正瑞园4楼　","Field3":"福田区","name":"上林社区党群服务中心","phone":13902905183,"lng":114.1076,"lat":22.569,"capacity":50}},
{"type":"Feature","geometry":{"type":"Point","coordinates":[114.0332,22.5454]},"properties":{"id":75,"address":"香轩路1号","Field3":"福田区","name":"深圳外国语小学","phone":18923830828,"lng":114.0332,"lat":22.5454,"capacity":200}},
{"type":"Feature","geometry":{"type":"Point","coordinates":[114.0167,22.5424]},"properties":{"id":76,"address":"竹子林六路13号东门","Field3":"福田区","name":"福田区教育科学研究院附属小学","phone":15920098206,"lng":114.0167,"lat":22.5424,"capacity":100}},
{"type":"Feature","geometry":{"type":"Point","coordinates":[114.0265,22.548]},"properties":{"id":77,"address":"农轩路20号","Field3":"福田区","name":"东海实验小学","phone":13501593419,"lng":114.0265,"lat":22.548,"capacity":100}},
{"type":"Feature","geometry":{"type":"Point","coordinates":[114.0227,22.5564]},"properties":{"id":78,"address":"农园路70号","Field3":"福田区","name":"荔园外国语小学（西校区）","phone":15012739688,"lng":114.0227,"lat":22.5564,"capacity":200}},
{"type":"Feature","geometry":{"type":"Point","coordinates":[114.0124,22.5422]},"properties":{"id":79,"address":"竹子林3路6号","Field3":"福田区","name":"福田区教育科学研究院附属中学","phone":15920060313,"lng":114.0124,"lat":22.5422,"capacity":200}},
{"type":"Feature","geometry":{"type":"Point","coordinates":[114.05,22.5571]},"properties":{"id":80,"address":"红荔西路8002号","Field3":"福田区","name":"荔园外国语小学（东校区）","phone":13602573508,"lng":114.05,"lat":22.5571,"capacity":150}},
{"type":"Feature","geometry":{"type":"Point","coordinates":[114.0586,22.5177]},"properties":{"id":81,"address":"福荣路4号","Field3":"福田区","name":"福田区益田小学","phone":13714080825,"lng":114.0586,"lat":22.5177,"capacity":200}},
{"type":"Feature","geometry":{"type":"Point","coordinates":[114.0596,22.5266]},"properties":{"id":82,"address":"石厦街5号","Field3":"福田区","name":"福田区红岭中学石厦分校","phone":13560787535,"lng":114.0596,"lat":22.5266,"capacity":200}},
{"type":"Feature","geometry":{"type":"Point","coordinates":[114.0568,22.5268]},"properties":{"id":83,"address":"石厦西村98号一、二楼","Field3":"福田区","name":"福田区石厦星光老人之家","phone":13509696811,"lng":114.0568,"lat":22.5268,"capacity":150}},
{"type":"Feature","geometry":{"type":"Point","coordinates":[114.0382,22.5722]},"properties":{"id":84,"address":"梅山街28号","Field3":"福田区","name":"福田区梅山中学","phone":13534051955,"lng":114.0382,"lat":22.5722,"capacity":200}},
{"type":"Feature","geometry":{"type":"Point","coordinates":[114.0936,22.5537]},"properties":{"id":85,"address":"中康路29号-3","Field3":"福田区","name":"梅林街道文化站","phone":13714062286,"lng":114.0936,"lat":22.5537,"capacity":130}},
{"type":"Feature","geometry":{"type":"Point","coordinates":[114.0489,22.5711]},"properties":{"id":86,"address":"梅林一村会所一楼","Field3":"福田区","name":"梅林一村社区工作站","phone":15019251855,"lng":114.0489,"lat":22.5711,"capacity":50}},
{"type":"Feature","geometry":{"type":"Point","coordinates":[114.0728,22.5756]},"properties":{"id":87,"address":"彩田北路艺丰花园A区12栋101、102","Field3":"福田区","name":"孖岭社区工作站","phone":18138276867,"lng":114.0728,"lat":22.5756,"capacity":100}},
{"type":"Feature","geometry":{"type":"Point","coordinates":[114.0809,22.5754]},"properties":{"id":88,"address":"林园东路10号","Field3":"福田区","name":"新阁社区工作站","phone":18126378357,"lng":114.0809,"lat":22.5754,"capacity":50}},
{"type":"Feature","geometry":{"type":"Point","coordinates":[114.0489,22.5711]},"properties":{"id":89,"address":"梅林街道金梅花园2栋5单元111","Field3":"福田区","name":"梅河社区工作站","phone":18138276850,"lng":114.0489,"lat":22.5711,"capacity":30}},
{"type":"Feature","geometry":{"type":"Point","coordinates":[114.0775,22.5781]},"properties":{"id":90,"address":"梅东二路翰岭院","Field3":"福田区","name":"翰岭社区工作站","phone":18138276910,"lng":114.0775,"lat":22.5781,"capacity":30}},
{"type":"Feature","geometry":{"type":"Point","coordinates":[114.0473,22.5481]},"properties":{"id":91,"address":"香逸名园裙楼105号","Field3":"福田区","name":"梅岭社区党群服务中心","phone":13530089915,"lng":114.0473,"lat":22.5481,"capacity":20}},
{"type":"Feature","geometry":{"type":"Point","coordinates":[114.0639,22.5694]},"properties":{"id":92,"address":"莲花北富莲大厦3栋二楼社区工作站舞蹈室","Field3":"福田区","name":"福田区莲花北富莲大厦3栋二楼社区工作站舞蹈室","phone":15889507718,"lng":114.0639,"lat":22.5694,"capacity":100}},
{"type":"Feature","geometry":{"type":"Point","coordinates":[114.0717,22.5672]},"properties":{"id":93,"address":"彩云路长城盛世二期内","Field3":"福田区","name":"深圳市福田区实验盛世幼儿园","phone":18123869688,"lng":114.0717,"lat":22.5672,"capacity":200}},
{"type":"Feature","geometry":{"type":"Point","coordinates":[114.049,22.5641]},"properties":{"id":94,"address":"景田东路99号","Field3":"福田区","name":"梅富社区党群服务中心","phone":13509697599,"lng":114.049,"lat":22.5641,"capacity":20}},
{"type":"Feature","geometry":{"type":"Point","coordinates":[114.1034,22.5521]},"properties":{"id":95,"address":"同福路1号","Field3":"福田区","name":"荔园小学（南校区）","phone":13620202891,"lng":114.1034,"lat":22.5521,"capacity":200}},
{"type":"Feature","geometry":{"type":"Point","coordinates":[114.1012,22.5489]},"properties":{"id":96,"address":"振中路40-42号","Field3":"福田区","name":"荔园小学（西校区）","phone":13622317477,"lng":114.1012,"lat":22.5489,"capacity":200}},
{"type":"Feature","geometry":{"type":"Point","coordinates":[114.0492,22.535]},"properties":{"id":97,"address":"新沙路60号5楼","Field3":"福田区","name":"沙头街道办事处","phone":13632603382,"lng":114.0492,"lat":22.535,"capacity":50}},
{"type":"Feature","geometry":{"type":"Point","coordinates":[114.043,22.523]},"properties":{"id":98,"address":"沙咀村四坊1号一楼","Field3":"福田区","name":"沙咀股份公司","phone":13902483550,"lng":114.043,"lat":22.523,"capacity":100}},
{"type":"Feature","geometry":{"type":"Point","coordinates":[114.0714,22.5303]},"properties":{"id":99,"address":"金田路2006号","Field3":"福田区","name":"福田区福田街道办事处","phone":18566766599,"lng":114.0714,"lat":22.5303,"capacity":100}},
{"type":"Feature","geometry":{"type":"Point","coordinates":[114.1072,22.5564]},"properties":{"id":100,"address":"园岭五街21号","Field3":"福田区","name":"园岭外国语小学　","phone":13590303135,"lng":114.1072,"lat":22.5564,"capacity":400}},
{"type":"Feature","geometry":{"type":"Point","coordinates":[114.0956,22.5592]},"properties":{"id":101,"address":"百花六路25号　","Field3":"福田区","name":"百花小学","phone":13640986865,"lng":114.0956,"lat":22.5592,"capacity":300}},
{"type":"Feature","geometry":{"type":"Point","coordinates":[114.0817,22.5473]},"properties":{"id":102,"address":"深南中路","Field3":"福田区","name":"城市绿洲学校","phone":18899850676,"lng":114.0817,"lat":22.5473,"capacity":400}},
{"type":"Feature","geometry":{"type":"Point","coordinates":[114.0231,22.5468]},"properties":{"id":103,"address":"农林路17号","Field3":"福田区","name":"福田区教科院附二小（原竹园小学）","phone":13590482247,"lng":114.0231,"lat":22.5468,"capacity":400}},
{"type":"Feature","geometry":{"type":"Point","coordinates":[114.0233,22.5616]},"properties":{"id":104,"address":"安托山九路6号","Field3":"福田区","name":"侨香外国语学校","phone":13651450700,"lng":114.0233,"lat":22.5616,"capacity":300}},
{"type":"Feature","geometry":{"type":"Point","coordinates":[114.0619,22.5273]},"properties":{"id":105,"address":"石厦北四街7号","Field3":"福田区","name":"福田区石厦中学校","phone":15820412056,"lng":114.0619,"lat":22.5273,"capacity":300}},
{"type":"Feature","geometry":{"type":"Point","coordinates":[114.0451,22.5751]},"properties":{"id":106,"address":"梅林一村梅亭路16号","Field3":"福田区","name":"福田区梅园小学","phone":13902989260,"lng":114.0451,"lat":22.5751,"capacity":400}},
{"type":"Feature","geometry":{"type":"Point","coordinates":[114.0716,22.5528]},"properties":{"id":107,"address":"海田路1019号","Field3":"福田区","name":"福田区天健小学","phone":13560747003,"lng":114.0716,"lat":22.5528,"capacity":350}},
{"type":"Feature","geometry":{"type":"Point","coordinates":[114.0241,22.5427]},"properties":{"id":108,"address":"香蜜湖街道农林路2号","Field3":"福田区","name":"福田区香蜜湖办事处文化站","phone":15899879557,"lng":114.0241,"lat":22.5427,"capacity":500}},
{"type":"Feature","geometry":{"type":"Point","coordinates":[114.072,22.5353]},"properties":{"id":109,"address":"红荔路5002号　","Field3":"福田区","name":"深圳市福田区莲花中学","phone":18922853993,"lng":114.072,"lat":22.5353,"capacity":1000}},
{"type":"Feature","geometry":{"type":"Point","coordinates":[114.0769,22.5581]},"properties":{"id":110,"address":"莲心路6号　","Field3":"福田区","name":"福田区美莲小学","phone":13613056889,"lng":114.0769,"lat":22.5581,"capacity":800}},
{"type":"Feature","geometry":{"type":"Point","coordinates":[114.0787,22.5493]},"properties":{"id":111,"address":"皇岗路3009号","Field3":"福田区","name":"深圳市第一职业技术学校　","phone":13392877569,"lng":114.0787,"lat":22.5493,"capacity":800}},
{"type":"Feature","geometry":{"type":"Point","coordinates":[114.0752,22.5526]},"properties":{"id":112,"address":"红荔路5011号　","Field3":"福田区","name":"福田区莲花小学","phone":13603085785,"lng":114.0752,"lat":22.5526,"capacity":800}},
{"type":"Feature","geometry":{"type":"Point","coordinates":[114.0882,22.5655]},"properties":{"id":113,"address":"梅岗路7号","Field3":"福田区","name":"福田区华富中学","phone":13610268982,"lng":114.0882,"lat":22.5655,"capacity":800}},
{"type":"Feature","geometry":{"type":"Point","coordinates":[114.0249,22.5521]},"properties":{"id":114,"address":"农林路28号","Field3":"福田区","name":"深圳高级中学（南校区）","phone":13651450700,"lng":114.0249,"lat":22.5521,"capacity":800}},
{"type":"Feature","geometry":{"type":"Point","coordinates":[114.0706,22.5781]},"properties":{"id":115,"address":"凯丰路20号","Field3":"福田区","name":"福田区梅华小学","phone":13926597720,"lng":114.0706,"lat":22.5781,"capacity":800}},
{"type":"Feature","geometry":{"type":"Point","coordinates":[114.0748,22.5789]},"properties":{"id":116,"address":"彩田北路7032号","Field3":"福田区","name":"翰林实验学校","phone":13926555725,"lng":114.0748,"lat":22.5789,"capacity":600}},
{"type":"Feature","geometry":{"type":"Point","coordinates":[114.0509,22.5647]},"properties":{"id":117,"address":"景田北三街2号","Field3":"福田区","name":"深圳市福景外国语学校","phone":13682677966,"lng":114.0509,"lat":22.5647,"capacity":2500}},
{"type":"Feature","geometry":{"type":"Point","coordinates":[114.0692,22.5675]},"properties":{"id":118,"address":"莲花路彩田村内","Field3":"福田区","name":"福田区彩田学校","phone":13640967341,"lng":114.0692,"lat":22.5675,"capacity":1500}},
{"type":"Feature","geometry":{"type":"Point","coordinates":[114.0601,22.5519]},"properties":{"id":119,"address":"福中一路3009号","Field3":"福田区","name":"福田区黄埔中学","phone":13302910802,"lng":114.0601,"lat":22.5519,"capacity":500}},
{"type":"Feature","geometry":{"type":"Point","coordinates":[114.0461,22.559]},"properties":{"id":120,"address":"景田北一街29号　","Field3":"福田区","name":"福田区科技中学","phone":13312977305,"lng":114.0461,"lat":22.559,"capacity":1000}},
{"type":"Feature","geometry":{"type":"Point","coordinates":[114.048,22.5542]},"properties":{"id":121,"address":"商报路11号","Field3":"福田区","name":"福田区狮岭小学　","phone":13798422678,"lng":114.048,"lat":22.5542,"capacity":800}},
{"type":"Feature","geometry":{"type":"Point","coordinates":[114.018,22.5481]},"properties":{"id":122,"address":"红荔西路景田南四街1号　","Field3":"福田区","name":"福田区华强职业技术学校","phone":13603026331,"lng":114.018,"lat":22.5481,"capacity":3000}},
{"type":"Feature","geometry":{"type":"Point","coordinates":[114.0615,22.5285]},"properties":{"id":123,"address":"景田东路35号","Field3":"福田区","name":"福田区景龙小学","phone":13502835228,"lng":114.0615,"lat":22.5285,"capacity":1000}},
{"type":"Feature","geometry":{"type":"Point","coordinates":[114.0681,22.633]},"properties":{"id":124,"address":"红荔路2005号　","Field3":"福田区","name":"深圳市外国语学校　","phone":13554986760,"lng":114.0681,"lat":22.633,"capacity":1000}},
{"type":"Feature","geometry":{"type":"Point","coordinates":[114.0355,22.5286]},"properties":{"id":125,"address":"上沙四十八栋一巷10号　","Field3":"福田区","name":"福田区上沙小学","phone":13923874482,"lng":114.0355,"lat":22.5286,"capacity":500}},
{"type":"Feature","geometry":{"type":"Point","coordinates":[114.042,22.5309]},"properties":{"id":126,"address":"福强路3030号　","Field3":"福田区","name":"福田区体育公园　","phone":13802223608,"lng":114.042,"lat":22.5309,"capacity":1000}},
{"type":"Feature","geometry":{"type":"Point","coordinates":[114.0804,22.5488]},"properties":{"id":127,"address":"下步庙南华村内　","Field3":"福田区","name":"福田区南华小学　","phone":23953987,"lng":114.0804,"lat":22.5488,"capacity":1000}},
{"type":"Feature","geometry":{"type":"Point","coordinates":[114.1049,22.5439]},"properties":{"id":128,"address":"埔尾村55号","Field3":"福田区","name":"福田区上步小学　","phone":25986536,"lng":114.1049,"lat":22.5439,"capacity":1000}},
{"type":"Feature","geometry":{"type":"Point","coordinates":[114.1015,22.5431]},"properties":{"id":129,"address":"松岭路30号　","Field3":"福田区","name":"福田区南园小学　","phone":83292501,"lng":114.1015,"lat":22.5431,"capacity":1000}},
{"type":"Feature","geometry":{"type":"Point","coordinates":[114.096,22.5416]},"properties":{"id":130,"address":"华发南路2号　","Field3":"福田区","name":"福田区上步中学　","phone":83207997,"lng":114.096,"lat":22.5416,"capacity":5000}},
{"type":"Feature","geometry":{"type":"Point","coordinates":[114.0039,22.5364]},"properties":{"id":131,"address":"侨城东路1151号金海燕花园4栋一楼首层","Field3":"福田区","name":"沙头街道金城社区工作站","phone":13714343630,"lng":114.0039,"lat":22.5364,"capacity":100}},
{"type":"Feature","geometry":{"type":"Point","coordinates":[114.0525,22.5356]},"properties":{"id":132,"address":"新沙路6号","Field3":"福田区","name":"新沙社区工作站","phone":13902997737,"lng":114.0525,"lat":22.5356,"capacity":50}},
{"type":"Feature","geometry":{"type":"Point","coordinates":[114.0304,22.531]},"properties":{"id":133,"address":"福荣路68—33号","Field3":"福田区","name":"金碧社区工作站","phone":13923888043,"lng":114.0304,"lat":22.531,"capacity":40}},
{"type":"Feature","geometry":{"type":"Point","coordinates":[114.0488,22.5247]},"properties":{"id":134,"address":"沙尾综合楼D座二楼","Field3":"福田区","name":"沙尾综合楼D座","phone":13632816227,"lng":114.0488,"lat":22.5247,"capacity":30}},
{"type":"Feature","geometry":{"type":"Point","coordinates":[114.0534,22.5335]},"properties":{"id":135,"address":"新洲村中心村67号5楼","Field3":"福田区","name":"新洲股份公司","phone":18128859266,"lng":114.0534,"lat":22.5335,"capacity":80}},
{"type":"Feature","geometry":{"type":"Point","coordinates":[114.0708,22.526]},"properties":{"id":136,"address":"水围村水围二街38号","Field3":"福田区","name":"福田区水围小学　","phone":13682342284,"lng":114.0708,"lat":22.526,"capacity":5000}},
{"type":"Feature","geometry":{"type":"Point","coordinates":[114.0314,22.5327]},"properties":{"id":137,"address":"深圳市福田区下沙村一坊73号东面","Field3":"福田区","name":"沙头街道下沙博物馆","phone":13823634369,"lng":114.0314,"lat":22.5327,"capacity":100}},
{"type":"Feature","geometry":{"type":"Point","coordinates":[114.1489,22.5555]},"properties":{"id":138,"address":"沿河北路1007号","Field3":"罗湖区","name":"靖轩小学","phone":13632989788,"lng":114.1489,"lat":22.5555,"capacity":0}},
{"type":"Feature","geometry":{"type":"Point","coordinates":[114.1516,22.5528]},"properties":{"id":139,"address":"新秀路69号","Field3":"罗湖区","name":"新秀小学","phone":13714063678,"lng":114.1516,"lat":22.5528,"capacity":0}},
{"type":"Feature","geometry":{"type":"Point","coordinates":[114.1403,22.5497]},"properties":{"id":140,"address":"春风路1016号","Field3":"罗湖区","name":"北斗小学","phone":13632568503,"lng":114.1403,"lat":22.5497,"capacity":0}},
{"type":"Feature","geometry":{"type":"Point","coordinates":[114.1503,22.5632]},"properties":{"id":141,"address":"怡景路景贝北村1006号","Field3":"罗湖区","name":"翠园中学初中部","phone":13714821293,"lng":114.1503,"lat":22.5632,"capacity":0}},
{"type":"Feature","geometry":{"type":"Point","coordinates":[114.1711,22.569]},"properties":{"id":142,"address":"罗芳路124号","Field3":"罗湖区","name":"罗湖外语学校初中实验部","phone":18938910235,"lng":114.1711,"lat":22.569,"capacity":0}},
{"type":"Feature","geometry":{"type":"Point","coordinates":[114.5168,22.6022]},"properties":{"id":143,"address":"北斗路20号","Field3":"罗湖区","name":"行知职业技术学校","phone":13714758588,"lng":114.5168,"lat":22.6022,"capacity":300}},
{"type":"Feature","geometry":{"type":"Point","coordinates":[114.1544,22.5543]},"properties":{"id":144,"address":"罗芳路39号","Field3":"罗湖区","name":"罗芳小学","phone":13692111446,"lng":114.1544,"lat":22.5543,"capacity":0}},
{"type":"Feature","geometry":{"type":"Point","coordinates":[114.1609,22.5496]},"properties":{"id":145,"address":"延芳路530号","Field3":"罗湖区","name":"安芳小学","phone":13691802088,"lng":114.1609,"lat":22.5496,"capacity":0}},
{"type":"Feature","geometry":{"type":"Point","coordinates":[114.1249,22.5433]},"properties":{"id":146,"address":"人民南路2031号","Field3":"罗湖区","name":"罗湖小学","phone":13828788348,"lng":114.1249,"lat":22.5433,"capacity":0}},
{"type":"Feature","geometry":{"type":"Point","coordinates":[114.129,22.5423]},"properties":{"id":147,"address":"南湖路1004号","Field3":"罗湖区","name":"罗湖中学","phone":18924627836,"lng":114.129,"lat":22.5423,"capacity":0}},
{"type":"Feature","geometry":{"type":"Point","coordinates":[114.1371,22.548]},"properties":{"id":148,"address":"文锦南路1013号","Field3":"罗湖区","name":"文锦中学","phone":13802230812,"lng":114.1371,"lat":22.548,"capacity":0}},
{"type":"Feature","geometry":{"type":"Point","coordinates":[113.9244,22.5743]},"properties":{"id":149,"address":"和平路船步街50号","Field3":"罗湖区","name":"深圳市滨河中学初中部","phone":13613083819,"lng":113.9244,"lat":22.5743,"capacity":0}},
{"type":"Feature","geometry":{"type":"Point","coordinates":[114.1173,22.5519]},"properties":{"id":150,"address":"桂园路红围街25号","Field3":"罗湖区","name":"桂园小学","phone":13632634007,"lng":114.1173,"lat":22.5519,"capacity":0}},
{"type":"Feature","geometry":{"type":"Point","coordinates":[114.1147,22.5596]},"properties":{"id":151,"address":"松园路8号","Field3":"罗湖区","name":"红岭小学","phone":13902970250,"lng":114.1147,"lat":22.5596,"capacity":0}},
{"type":"Feature","geometry":{"type":"Point","coordinates":[114.1181,22.5607]},"properties":{"id":152,"address":"桂园北路232号","Field3":"罗湖区","name":"桂园中学","phone":13640932352,"lng":114.1181,"lat":22.5607,"capacity":0}},
{"type":"Feature","geometry":{"type":"Point","coordinates":[114.12,22.554]},"properties":{"id":153,"address":"桂园路果园东7号","Field3":"罗湖区","name":"红桂中学","phone":13798314103,"lng":114.12,"lat":22.554,"capacity":0}},
{"type":"Feature","geometry":{"type":"Point","coordinates":[114.1119,22.5427]},"properties":{"id":154,"address":"红岭南路1002号","Field3":"罗湖区","name":"滨河小学","phone":13501582932,"lng":114.1119,"lat":22.5427,"capacity":0}},
{"type":"Feature","geometry":{"type":"Point","coordinates":[114.1347,22.5583]},"properties":{"id":155,"address":"文锦中路东升街28号","Field3":"罗湖区","name":"深圳市螺岭外国语实验学校一部","phone":13530628297,"lng":114.1347,"lat":22.5583,"capacity":0}},
{"type":"Feature","geometry":{"type":"Point","coordinates":[114.1277,22.5559]},"properties":{"id":156,"address":"晒布路49号","Field3":"罗湖区","name":"人民小学","phone":13924588839,"lng":114.1277,"lat":22.5559,"capacity":0}},
{"type":"Feature","geometry":{"type":"Point","coordinates":[114.1303,22.5519]},"properties":{"id":157,"address":"湖贝路2176号","Field3":"罗湖区","name":"螺岭外国语实验学校湖贝校区","phone":13600187939,"lng":114.1303,"lat":22.5519,"capacity":0}},
{"type":"Feature","geometry":{"type":"Point","coordinates":[114.1268,22.5663]},"properties":{"id":158,"address":"洪湖路洪湖五街23号","Field3":"罗湖区","name":"洪湖小学","phone":18929393099,"lng":114.1268,"lat":22.5663,"capacity":0}},
{"type":"Feature","geometry":{"type":"Point","coordinates":[114.1208,22.5725]},"properties":{"id":159,"address":"宝岗路146号","Field3":"罗湖区","name":"笋岗小学","phone":18607551389,"lng":114.1208,"lat":22.5725,"capacity":0}},
{"type":"Feature","geometry":{"type":"Point","coordinates":[114.1315,22.5728]},"properties":{"id":160,"address":"田贝三路103号（搬迁至德弘天下办学）","Field3":"罗湖区","name":"水田小学","phone":13699802909,"lng":114.1315,"lat":22.5728,"capacity":0}},
{"type":"Feature","geometry":{"type":"Point","coordinates":[114.148,22.5827]},"properties":{"id":161,"address":"东乐路68号","Field3":"罗湖区","name":"布心小学","phone":18926588612,"lng":114.148,"lat":22.5827,"capacity":0}},
{"type":"Feature","geometry":{"type":"Point","coordinates":[114.1475,22.5861]},"properties":{"id":162,"address":"东湖路3号","Field3":"罗湖区","name":"布心中学","phone":13538122669,"lng":114.1475,"lat":22.5861,"capacity":0}},
{"type":"Feature","geometry":{"type":"Point","coordinates":[114.1831,22.6083]},"properties":{"id":163,"address":"大望村685号","Field3":"罗湖区","name":"大望学校","phone":18038133898,"lng":114.1831,"lat":22.6083,"capacity":0}},
{"type":"Feature","geometry":{"type":"Point","coordinates":[114.1448,22.5839]},"properties":{"id":164,"address":"东晓路3018号","Field3":"罗湖区","name":"东晓小学","phone":13823392573,"lng":114.1448,"lat":22.5839,"capacity":0}},
{"type":"Feature","geometry":{"type":"Point","coordinates":[114.1464,22.5756]},"properties":{"id":165,"address":"太安路99号","Field3":"罗湖区","name":"水库小学","phone":13802206131,"lng":114.1464,"lat":22.5756,"capacity":0}},
{"type":"Feature","geometry":{"type":"Point","coordinates":[114.1513,22.5939]},"properties":{"id":166,"address":"翠荫路268号","Field3":"罗湖区","name":"淘金山小学","phone":13927482744,"lng":114.1513,"lat":22.5939,"capacity":0}},
{"type":"Feature","geometry":{"type":"Point","coordinates":[114.1768,22.5642]},"properties":{"id":167,"address":"莲塘三号支路2号","Field3":"罗湖区","name":"莲南小学","phone":18926555588,"lng":114.1768,"lat":22.5642,"capacity":0}},
{"type":"Feature","geometry":{"type":"Point","coordinates":[114.1763,22.5689]},"properties":{"id":168,"address":"莲塘聚宝路111号","Field3":"罗湖区","name":"仙桐实验小学（莲塘校区）","phone":15989871894,"lng":114.1763,"lat":22.5689,"capacity":100}},
{"type":"Feature","geometry":{"type":"Point","coordinates":[114.1713,22.5694]},"properties":{"id":169,"address":"莲塘仙湖路","Field3":"罗湖区","name":"罗湖外语学校高中部","phone":13823553747,"lng":114.1713,"lat":22.5694,"capacity":0}},
{"type":"Feature","geometry":{"type":"Point","coordinates":[114.1806,22.5708]},"properties":{"id":170,"address":"莲塘国威路38号","Field3":"罗湖区","name":"罗湖外语学校初中部","phone":13500054890,"lng":114.1806,"lat":22.5708,"capacity":0}},
{"type":"Feature","geometry":{"type":"Point","coordinates":[114.1763,22.5689]},"properties":{"id":171,"address":"莲塘长岭路9号","Field3":"罗湖区","name":"仙桐实验小学","phone":13823389981,"lng":114.1763,"lat":22.5689,"capacity":0}},
{"type":"Feature","geometry":{"type":"Point","coordinates":[114.1336,22.5818]},"properties":{"id":172,"address":"翠竹北路9号","Field3":"罗湖区","name":"东昌小学","phone":13724309219,"lng":114.1336,"lat":22.5818,"capacity":0}},
{"type":"Feature","geometry":{"type":"Point","coordinates":[114.1253,22.5941]},"properties":{"id":173,"address":"金稻田路比利华山庄","Field3":"罗湖区","name":"华丽小学","phone":25679011,"lng":114.1253,"lat":22.5941,"capacity":0}},
{"type":"Feature","geometry":{"type":"Point","coordinates":[114.1298,22.5838]},"properties":{"id":174,"address":"太白路4058号","Field3":"罗湖区","name":"松泉实验学校","phone":25828110,"lng":114.1298,"lat":22.5838,"capacity":0}},
{"type":"Feature","geometry":{"type":"Point","coordinates":[114.1264,22.5891]},"properties":{"id":175,"address":"金稻田路2112号","Field3":"罗湖区","name":"翠茵学校","phone":13714480811,"lng":114.1264,"lat":22.5891,"capacity":200}},
{"type":"Feature","geometry":{"type":"Point","coordinates":[114.1067,22.5755]},"properties":{"id":176,"address":"泥岗西路69号","Field3":"罗湖区","name":"凤光小学","phone":13332912766,"lng":114.1067,"lat":22.5755,"capacity":0}},
{"type":"Feature","geometry":{"type":"Point","coordinates":[114.1132,22.5768]},"properties":{"id":177,"address":"红岗路1008号","Field3":"罗湖区","name":"笋岗中学","phone":18681501671,"lng":114.1132,"lat":22.5768,"capacity":0}},
{"type":"Feature","geometry":{"type":"Point","coordinates":[114.1193,22.5912]},"properties":{"id":178,"address":"草埔西吓围新村43号","Field3":"罗湖区","name":"草埔小学","phone":18665916526,"lng":114.1193,"lat":22.5912,"capacity":0}},
{"type":"Feature","geometry":{"type":"Point","coordinates":[114.2262,22.5592]},"properties":{"id":179,"address":"沙头角径口村63号综合楼1楼","Field3":"盐田区","name":"深圳市盐田区福利中心","phone":13682502682,"lng":114.2262,"lat":22.5592,"capacity":50}},
{"type":"Feature","geometry":{"type":"Point","coordinates":[114.2398,22.5558]},"properties":{"id":180,"address":"环城路12号","Field3":"盐田区","name":"深圳市中英街社区党群服务中心","phone":13510781100,"lng":114.2398,"lat":22.5558,"capacity":60}},
{"type":"Feature","geometry":{"type":"Point","coordinates":[114.2274,22.5624]},"properties":{"id":181,"address":"沙头角向园路5-1号104","Field3":"盐田区","name":"深圳市沙头角社区居委会","phone":18923796066,"lng":114.2274,"lat":22.5624,"capacity":100}},
{"type":"Feature","geometry":{"type":"Point","coordinates":[114.2357,22.5567]},"properties":{"id":182,"address":"沙头角恩上路一巷九号二楼","Field3":"盐田区","name":"深圳市田心社区居委会","phone":13798465905,"lng":114.2357,"lat":22.5567,"capacity":60}},
{"type":"Feature","geometry":{"type":"Point","coordinates":[114.237,22.5557]},"properties":{"id":183,"address":"沙头角桥东新村一栋93号101-102","Field3":"盐田区","name":"深圳市桥东社区服务站","phone":18926444448,"lng":114.237,"lat":22.5557,"capacity":30}},
{"type":"Feature","geometry":{"type":"Point","coordinates":[114.2398,22.5558]},"properties":{"id":184,"address":"沙头角诗宁里七栋103-104","Field3":"盐田区","name":"深圳市东和社区服务站","phone":13602633291,"lng":114.2398,"lat":22.5558,"capacity":30}},
{"type":"Feature","geometry":{"type":"Point","coordinates":[114.2367,22.5583]},"properties":{"id":185,"address":"沙头角恩上路6号","Field3":"盐田区","name":"深圳市田心小学","phone":13622311481,"lng":114.2367,"lat":22.5583,"capacity":300}},
{"type":"Feature","geometry":{"type":"Point","coordinates":[114.2478,22.5682]},"properties":{"id":186,"address":"云汉路9号","Field3":"盐田区","name":"深圳市田东社区工作站","phone":13530282529,"lng":114.2478,"lat":22.5682,"capacity":30}},
{"type":"Feature","geometry":{"type":"Point","coordinates":[114.2429,22.5644]},"properties":{"id":187,"address":"香径东街44号暗径新村","Field3":"盐田区","name":"深圳市梧桐社区工作站","phone":13670122996,"lng":114.2429,"lat":22.5644,"capacity":15}},
{"type":"Feature","geometry":{"type":"Point","coordinates":[114.2433,22.5608]},"properties":{"id":188,"address":"马庙街9号","Field3":"盐田区","name":"深圳市鹏湾社区工作站","phone":13510657628,"lng":114.2433,"lat":22.5608,"capacity":30}},
{"type":"Feature","geometry":{"type":"Point","coordinates":[114.2406,22.5519]},"properties":{"id":189,"address":"海山街道海涛花园4栋","Field3":"盐田区","name":"深圳市海涛社区工作站","phone":13510847919,"lng":114.2406,"lat":22.5519,"capacity":30}},
{"type":"Feature","geometry":{"type":"Point","coordinates":[114.2601,22.5751]},"properties":{"id":190,"address":"盐田街道东海四街2号文体中心一楼","Field3":"盐田区","name":"深圳市盐田街道文体中心","phone":13802240809,"lng":114.2601,"lat":22.5751,"capacity":300}},
{"type":"Feature","geometry":{"type":"Point","coordinates":[114.0262,22.5442]},"properties":{"id":191,"address":"盐田路85号东海社区综合服务楼六楼","Field3":"盐田区","name":"深圳市东海社区工作站","phone":13902999155,"lng":114.0262,"lat":22.5442,"capacity":50}},
{"type":"Feature","geometry":{"type":"Point","coordinates":[114.2788,22.5927]},"properties":{"id":192,"address":"沿港新村盐田街道残疾人综合服务中心一楼","Field3":"盐田区","name":"深圳市沿港社区工作站","phone":13632501660,"lng":114.2788,"lat":22.5927,"capacity":50}},
{"type":"Feature","geometry":{"type":"Point","coordinates":[114.2812,22.5912]},"properties":{"id":193,"address":"深圳市盐田区盐田安置区一号","Field3":"盐田区","name":"深圳市盐田社区工作站","phone":13510968160,"lng":114.2812,"lat":22.5912,"capacity":50}},
{"type":"Feature","geometry":{"type":"Point","coordinates":[114.2569,22.5943]},"properties":{"id":194,"address":"明珠大道61号明珠社区工作站","Field3":"盐田区","name":"深圳市明珠社区工作站","phone":13798300299,"lng":114.2569,"lat":22.5943,"capacity":50}},
{"type":"Feature","geometry":{"type":"Point","coordinates":[114.2532,22.599]},"properties":{"id":195,"address":"盐田四村老塘108号永安社区工作站","Field3":"盐田区","name":"深圳市永安社区工作站","phone":13316538638,"lng":114.2532,"lat":22.599,"capacity":50}},
{"type":"Feature","geometry":{"type":"Point","coordinates":[114.2465,22.5944]},"properties":{"id":196,"address":"中青路8号半山溪谷一栋1单元3楼海桐社区党群中心","Field3":"盐田区","name":"深圳市海桐社区工作站","phone":13809869936,"lng":114.2465,"lat":22.5944,"capacity":50}},
{"type":"Feature","geometry":{"type":"Point","coordinates":[114.2778,22.5961]},"properties":{"id":197,"address":"北山道盐梅路交汇处边防派出所","Field3":"盐田区","name":"深圳市海上边防派出所","phone":13823513502,"lng":114.2778,"lat":22.5961,"capacity":100}},
{"type":"Feature","geometry":{"type":"Point","coordinates":[114.2738,22.5939]},"properties":{"id":198,"address":"东海大道30号","Field3":"盐田区","name":"深圳市盐港中学","phone":15989440080,"lng":114.2738,"lat":22.5939,"capacity":500}},
{"type":"Feature","geometry":{"type":"Point","coordinates":[114.2561,22.58]},"properties":{"id":199,"address":"青蓬路30号","Field3":"盐田区","name":"深圳市盐田高级中学","phone":13510777116,"lng":114.2561,"lat":22.58,"capacity":300}},
{"type":"Feature","geometry":{"type":"Point","coordinates":[114.2591,22.5998]},"properties":{"id":200,"address":"东海三街10号","Field3":"盐田区","name":"深圳市盐田区实验学校","phone":13534213608,"lng":114.2591,"lat":22.5998,"capacity":300}},
{"type":"Feature","geometry":{"type":"Point","coordinates":[114.2589,22.5981]},"properties":{"id":201,"address":"盐田路272号","Field3":"盐田区","name":"深圳市乐群小学","phone":13692280445,"lng":114.2589,"lat":22.5981,"capacity":300}},
{"type":"Feature","geometry":{"type":"Point","coordinates":[114.3178,22.6058]},"properties":{"id":202,"address":"梅沙街道金沙街32-2号","Field3":"盐田区","name":"梅沙街道办事处文化站","phone":15013812813,"lng":114.3178,"lat":22.6058,"capacity":200}},
{"type":"Feature","geometry":{"type":"Point","coordinates":[114.3112,22.6009]},"properties":{"id":203,"address":"梅沙街道大梅沙村230号","Field3":"盐田区","name":"大梅沙社区工作站","phone":13602575883,"lng":114.3112,"lat":22.6009,"capacity":50}},
{"type":"Feature","geometry":{"type":"Point","coordinates":[114.3179,22.6067]},"properties":{"id":204,"address":"梅沙街道上成路8号","Field3":"盐田区","name":"滨海社区工作站","phone":13728806081,"lng":114.3179,"lat":22.6067,"capacity":50}},
{"type":"Feature","geometry":{"type":"Point","coordinates":[114.3112,22.6009]},"properties":{"id":205,"address":"梅沙街道小梅沙村68号","Field3":"盐田区","name":"小梅沙社区工作站","phone":13714306665,"lng":114.3112,"lat":22.6009,"capacity":40}},
{"type":"Feature","geometry":{"type":"Point","coordinates":[114.3058,22.6054]},"properties":{"id":206,"address":"梅沙街道环碧路196号","Field3":"盐田区","name":"东海岸社区工作站","phone":13602551136,"lng":114.3058,"lat":22.6054,"capacity":70}},
{"type":"Feature","geometry":{"type":"Point","coordinates":[114.308,22.6027]},"properties":{"id":207,"address":"环碧路69号","Field3":"盐田区","name":"深圳市盐田区外国语学校","phone":13662626991,"lng":114.308,"lat":22.6027,"capacity":300}},
{"type":"Feature","geometry":{"type":"Point","coordinates":[114.2404,22.5541]},"properties":{"id":208,"address":"盐田区海涛路27号二楼","Field3":"盐田区","name":"盐田区游泳馆","phone":13760162225,"lng":114.2404,"lat":22.5541,"capacity":600}},
{"type":"Feature","geometry":{"type":"Point","coordinates":[114.3099,22.6048]},"properties":{"id":209,"address":"梅沙街道环梅路70号","Field3":"盐田区","name":"盐田体育中心","phone":18922838508,"lng":114.3099,"lat":22.6048,"capacity":250}},
{"type":"Feature","geometry":{"type":"Point","coordinates":[113.9265,22.536]},"properties":{"id":210,"address":"常兴新村906号三楼","Field3":"南山区","name":"田厦社区工作站","phone":13724355901,"lng":113.9265,"lat":22.536,"capacity":100}},
{"type":"Feature","geometry":{"type":"Point","coordinates":[113.9324,22.5702]},"properties":{"id":211,"address":"建工村建工路28号一楼","Field3":"南山区","name":"同乐社区工作站","phone":13809880996,"lng":113.9324,"lat":22.5702,"capacity":100}},
{"type":"Feature","geometry":{"type":"Point","coordinates":[113.9179,22.5349]},"properties":{"id":212,"address":"桃李路1号","Field3":"南山区","name":"前海学校小学部","phone":13922851399,"lng":113.9179,"lat":22.5349,"capacity":1000}},
{"type":"Feature","geometry":{"type":"Point","coordinates":[113.9222,22.542]},"properties":{"id":213,"address":"南头街333号","Field3":"南山区","name":"大新小学","phone":13651427355,"lng":113.9222,"lat":22.542,"capacity":1000}},
{"type":"Feature","geometry":{"type":"Point","coordinates":[113.9275,22.5426]},"properties":{"id":214,"address":"南山区南头街86号","Field3":"南山区","name":"荔香学校","phone":13427917289,"lng":113.9275,"lat":22.5426,"capacity":1000}},
{"type":"Feature","geometry":{"type":"Point","coordinates":[114.1019,22.5445]},"properties":{"id":215,"address":"南新路德馨街1号","Field3":"南山区","name":"南园避险中心","phone":13802701037,"lng":114.1019,"lat":22.5445,"capacity":100}},
{"type":"Feature","geometry":{"type":"Point","coordinates":[113.9115,22.5192]},"properties":{"id":216,"address":"前海路太子山庄对面","Field3":"南山区","name":"南海中学","phone":13823668963,"lng":113.9115,"lat":22.5192,"capacity":1000}},
{"type":"Feature","geometry":{"type":"Point","coordinates":[113.9192,22.5295]},"properties":{"id":217,"address":"桂庙路108号","Field3":"南山区","name":"阳光小学","phone":13417369610,"lng":113.9192,"lat":22.5295,"capacity":1000}},
{"type":"Feature","geometry":{"type":"Point","coordinates":[113.9119,22.5454]},"properties":{"id":218,"address":"前海自贸区怡海大道5388号","Field3":"南山区","name":"港湾小学","phone":13590280127,"lng":113.9119,"lat":22.5454,"capacity":1000}},
{"type":"Feature","geometry":{"type":"Point","coordinates":[114.1114,22.6368]},"properties":{"id":219,"address":"西丽湖路4223-8号","Field3":"南山区","name":"丽湖中学","phone":13603030423,"lng":114.1114,"lat":22.6368,"capacity":1000}},
{"type":"Feature","geometry":{"type":"Point","coordinates":[113.9483,22.6306]},"properties":{"id":220,"address":"西丽白芒村北80号","Field3":"南山区","name":"白芒小学","phone":13530990286,"lng":113.9483,"lat":22.6306,"capacity":1000}},
{"type":"Feature","geometry":{"type":"Point","coordinates":[114.0646,22.5485]},"properties":{"id":221,"address":"西丽大磡福利农场内200米","Field3":"南山区","name":"大磡小学","phone":13352987432,"lng":114.0646,"lat":22.5485,"capacity":1000}},
{"type":"Feature","geometry":{"type":"Point","coordinates":[113.9537,22.5832]},"properties":{"id":222,"address":"西丽石鼓路23号","Field3":"南山区","name":"西丽二中","phone":13613041187,"lng":113.9537,"lat":22.5832,"capacity":1000}},
{"type":"Feature","geometry":{"type":"Point","coordinates":[113.9734,22.5935]},"properties":{"id":223,"address":"西丽南路11号","Field3":"南山区","name":"西丽二小","phone":13530960573,"lng":113.9734,"lat":22.5935,"capacity":1000}},
{"type":"Feature","geometry":{"type":"Point","coordinates":[113.9609,22.5657]},"properties":{"id":224,"address":"宝深路松坪村北区小区内","Field3":"南山区","name":"松坪小学","phone":13543294450,"lng":113.9609,"lat":22.5657,"capacity":1000}},
{"type":"Feature","geometry":{"type":"Point","coordinates":[113.973,22.5483]},"properties":{"id":225,"address":"绿景公寓首层","Field3":"南山区","name":"明珠街社区工作站","phone":18923562032,"lng":113.973,"lat":22.5483,"capacity":100}},
{"type":"Feature","geometry":{"type":"Point","coordinates":[113.9962,22.5413]},"properties":{"id":226,"address":"华侨城光华街9栋首层","Field3":"南山区","name":"光华街社区工作站","phone":15816866783,"lng":113.9962,"lat":22.5413,"capacity":100}},
{"type":"Feature","geometry":{"type":"Point","coordinates":[113.9816,22.5559]},"properties":{"id":227,"address":"华侨城香山西街6号　","Field3":"南山区","name":"南山第二实验学校","phone":13823375493,"lng":113.9816,"lat":22.5559,"capacity":1000}},
{"type":"Feature","geometry":{"type":"Point","coordinates":[113.9315,22.5318]},"properties":{"id":228,"address":"深湾一路和白石三道交界处","Field3":"南山区","name":"海滨实验小学深圳湾部","phone":13421306381,"lng":113.9315,"lat":22.5318,"capacity":1000}},
{"type":"Feature","geometry":{"type":"Point","coordinates":[113.9936,22.5432]},"properties":{"id":229,"address":"侨城东街2号","Field3":"南山区","name":"华侨城小学","phone":13825298641,"lng":113.9936,"lat":22.5432,"capacity":1000}},
{"type":"Feature","geometry":{"type":"Point","coordinates":[113.9341,22.4937]},"properties":{"id":230,"address":"石云路44号","Field3":"南山区","name":"蛇口大厦","phone":13422884933,"lng":113.9341,"lat":22.4937,"capacity":100}},
{"type":"Feature","geometry":{"type":"Point","coordinates":[113.938,22.4942]},"properties":{"id":231,"address":"蛇口花果路2号","Field3":"南山区","name":"蛇口学校","phone":18165700116,"lng":113.938,"lat":22.4942,"capacity":1000}},
{"type":"Feature","geometry":{"type":"Point","coordinates":[113.9261,22.4905]},"properties":{"id":232,"address":"蛇口海昌街153号","Field3":"南山区","name":"太子湾学校","phone":13428714416,"lng":113.9261,"lat":22.4905,"capacity":1000}},
{"type":"Feature","geometry":{"type":"Point","coordinates":[113.9265,22.4968]},"properties":{"id":233,"address":"荔园路52号","Field3":"南山区","name":"蛇口育才一小","phone":15889669520,"lng":113.9265,"lat":22.4968,"capacity":1000}},
{"type":"Feature","geometry":{"type":"Point","coordinates":[113.9012,22.4882]},"properties":{"id":234,"address":"赤湾少帝路3号","Field3":"南山区","name":"赤湾学校","phone":13808833473,"lng":113.9012,"lat":22.4882,"capacity":1000}},
{"type":"Feature","geometry":{"type":"Point","coordinates":[113.9262,22.5039]},"properties":{"id":235,"address":"沿山路30号","Field3":"南山区","name":"蛇口育才三小","phone":13715199301,"lng":113.9262,"lat":22.5039,"capacity":1000}},
{"type":"Feature","geometry":{"type":"Point","coordinates":[113.9404,22.5311]},"properties":{"id":236,"address":"桂庙新村90号","Field3":"南山区","name":"粤桂社区工作站","phone":13632710112,"lng":113.9404,"lat":22.5311,"capacity":100}},
{"type":"Feature","geometry":{"type":"Point","coordinates":[113.9416,22.5481]},"properties":{"id":237,"address":"帝景园二期B栋","Field3":"南山区","name":"麻岭社区工作站","phone":13556868566,"lng":113.9416,"lat":22.5481,"capacity":100}},
{"type":"Feature","geometry":{"type":"Point","coordinates":[113.9589,22.5491]},"properties":{"id":238,"address":"大冲铜鼓路53号","Field3":"南山区","name":"南外大冲学校","phone":13790109633,"lng":113.9589,"lat":22.5491,"capacity":1000}},
{"type":"Feature","geometry":{"type":"Point","coordinates":[113.9426,22.5109]},"properties":{"id":239,"address":"东滨路3002号","Field3":"南山区","name":"北师大南山附中","phone":15818651808,"lng":113.9426,"lat":22.5109,"capacity":1000}},
{"type":"Feature","geometry":{"type":"Point","coordinates":[113.9715,22.5914]},"properties":{"id":240,"address":"丽山路平山村平福苑2路","Field3":"南山区","name":"平山社区工作站","phone":13823301392,"lng":113.9715,"lat":22.5914,"capacity":100}},
{"type":"Feature","geometry":{"type":"Point","coordinates":[113.9943,22.5968]},"properties":{"id":241,"address":"塘长路塘朗新村1号2楼","Field3":"南山区","name":"塘朗社区工作站","phone":13603087784,"lng":113.9943,"lat":22.5968,"capacity":100}},
{"type":"Feature","geometry":{"type":"Point","coordinates":[113.9773,22.554]},"properties":{"id":242,"address":"桃源村94栋2楼","Field3":"南山区","name":"桃源村工作站","phone":13267103108,"lng":113.9773,"lat":22.554,"capacity":200}},
{"type":"Feature","geometry":{"type":"Point","coordinates":[114.0071,22.5956]},"properties":{"id":243,"address":"学苑大道1129号","Field3":"南山区","name":"塘朗小学","phone":13602682534,"lng":114.0071,"lat":22.5956,"capacity":1000}},
{"type":"Feature","geometry":{"type":"Point","coordinates":[113.9957,22.5967]},"properties":{"id":244,"address":"学苑大道1998号崇文花园","Field3":"南山区","name":"南科大实验一小","phone":13143437097,"lng":113.9957,"lat":22.5967,"capacity":1000}},
{"type":"Feature","geometry":{"type":"Point","coordinates":[113.9838,22.5635]},"properties":{"id":245,"address":"龙珠大道桃源村内","Field3":"南山区","name":"桃源小学","phone":13500055620,"lng":113.9838,"lat":22.5635,"capacity":1000}},
{"type":"Feature","geometry":{"type":"Point","coordinates":[113.97,22.5933]},"properties":{"id":246,"address":"平山一路58号","Field3":"南山区","name":"平山小学","phone":13688805919,"lng":113.97,"lat":22.5933,"capacity":1000}},
{"type":"Feature","geometry":{"type":"Point","coordinates":[113.9392,22.5863]},"properties":{"id":247,"address":"留仙大道7019号","Field3":"南山区","name":"南山区社会福利中心","phone":13692225614,"lng":113.9392,"lat":22.5863,"capacity":300}},
{"type":"Feature","geometry":{"type":"Point","coordinates":[113.9036,22.5781]},"properties":{"id":248,"address":"新安街道宝城30区建安一路384号","Field3":"宝安区","name":"深圳市建安小学","phone":13556871013,"lng":113.9036,"lat":22.5781,"capacity":570}},
{"type":"Feature","geometry":{"type":"Point","coordinates":[113.9175,22.5719]},"properties":{"id":249,"address":"新安街道宝城19区新圳路79号（新安公园旁边）","Field3":"宝安区","name":"深圳市宝民小学","phone":18123772303,"lng":113.9175,"lat":22.5719,"capacity":570}},
{"type":"Feature","geometry":{"type":"Point","coordinates":[113.9135,22.5703]},"properties":{"id":250,"address":"新安街道宝城8区兴华二路188号（新安湖花园）","Field3":"宝安区","name":"深圳市新安湖小学","phone":13530005076,"lng":113.9135,"lat":22.5703,"capacity":570}},
{"type":"Feature","geometry":{"type":"Point","coordinates":[113.9052,22.5862]},"properties":{"id":251,"address":"新安街道宝城35区公园路341号（上合小学旧教学区）","Field3":"宝安区","name":"深圳市上合小学","phone":13662285920,"lng":113.9052,"lat":22.5862,"capacity":570}},
{"type":"Feature","geometry":{"type":"Point","coordinates":[113.8958,22.5724]},"properties":{"id":252,"address":"新安街道宝城47区翻身路530号","Field3":"宝安区","name":"深圳市翻身小学","phone":13794473836,"lng":113.8958,"lat":22.5724,"capacity":570}},
{"type":"Feature","geometry":{"type":"Point","coordinates":[113.9016,22.5668]},"properties":{"id":253,"address":"新安街道翻身路336号","Field3":"宝安区","name":"深圳市安乐小学","phone":13662682269,"lng":113.9016,"lat":22.5668,"capacity":350}},
{"type":"Feature","geometry":{"type":"Point","coordinates":[113.8904,22.5668]},"properties":{"id":254,"address":"新安街道罗田路宝安体育馆","Field3":"宝安区","name":"深圳市宝安区体育馆","phone":13418762907,"lng":113.8904,"lat":22.5668,"capacity":500}},
{"type":"Feature","geometry":{"type":"Point","coordinates":[113.8829,22.567]},"properties":{"id":255,"address":"新安街道宝城82区海裕社区办公大楼","Field3":"宝安区","name":"深圳市海裕社区工作站","phone":13600142929,"lng":113.8829,"lat":22.567,"capacity":100}},
{"type":"Feature","geometry":{"type":"Point","coordinates":[113.9131,22.5851]},"properties":{"id":256,"address":"新安街道宝城33区新安三路158号","Field3":"宝安区","name":"深圳市上合社区工作站","phone":13632644240,"lng":113.9131,"lat":22.5851,"capacity":80}},
{"type":"Feature","geometry":{"type":"Point","coordinates":[113.905,22.5781]},"properties":{"id":257,"address":"新安街道宝城30区百花苑","Field3":"宝安区","name":"深圳市文汇社区工作站","phone":13670058383,"lng":113.905,"lat":22.5781,"capacity":40}},
{"type":"Feature","geometry":{"type":"Point","coordinates":[113.9,22.558]},"properties":{"id":258,"address":"新安街道宝城84区风临洲花园C栋二楼","Field3":"宝安区","name":"深圳市海旺社区工作站","phone":13714261302,"lng":113.9,"lat":22.558,"capacity":30}},
{"type":"Feature","geometry":{"type":"Point","coordinates":[113.9202,22.5896]},"properties":{"id":259,"address":"新安街道宝城71区留仙二路三巷社区工作站三楼","Field3":"宝安区","name":"深圳市兴东社区工作站","phone":13590144331,"lng":113.9202,"lat":22.5896,"capacity":50}},
{"type":"Feature","geometry":{"type":"Point","coordinates":[113.9011,22.5701]},"properties":{"id":260,"address":"新安街道宝城45区泰华俊庭A座二楼","Field3":"宝安区","name":"深圳市海富社区工作站","phone":13641493734,"lng":113.9011,"lat":22.5701,"capacity":200}},
{"type":"Feature","geometry":{"type":"Point","coordinates":[113.8935,22.5726]},"properties":{"id":261,"address":"新安街道宝城48区海华一路社区办公大楼","Field3":"宝安区","name":"深圳市海华社区工作站","phone":13713810804,"lng":113.8935,"lat":22.5726,"capacity":60}},
{"type":"Feature","geometry":{"type":"Point","coordinates":[113.9043,22.5863]},"properties":{"id":262,"address":"新安街道宝城35区安华一巷15号","Field3":"宝安区","name":"深圳市上川社区工作站","phone":15813822772,"lng":113.9043,"lat":22.5863,"capacity":30}},
{"type":"Feature","geometry":{"type":"Point","coordinates":[113.9158,22.5714]},"properties":{"id":263,"address":"新安街道宝城19区88栋四楼","Field3":"宝安区","name":"深圳市灵芝园社区工作站","phone":13652326308,"lng":113.9158,"lat":22.5714,"capacity":30}},
{"type":"Feature","geometry":{"type":"Point","coordinates":[113.9132,22.5599]},"properties":{"id":264,"address":"新安街道宝城37区龙泉一路100号","Field3":"宝安区","name":"深圳市新乐社区工作站","phone":13410657905,"lng":113.9132,"lat":22.5599,"capacity":100}},
{"type":"Feature","geometry":{"type":"Point","coordinates":[113.9225,22.5742]},"properties":{"id":265,"address":"新安街道宝城20区洪浪南路3号洪浪社区综合楼（一楼）","Field3":"宝安区","name":"深圳市洪浪社区工作站","phone":13554782334,"lng":113.9225,"lat":22.5742,"capacity":60}},
{"type":"Feature","geometry":{"type":"Point","coordinates":[113.9097,22.5717]},"properties":{"id":266,"address":"宝城10区冠城世家建安社区工作站一楼","Field3":"宝安区","name":"深圳市建安社区工作站","phone":13510718079,"lng":113.9097,"lat":22.5717,"capacity":30}},
{"type":"Feature","geometry":{"type":"Point","coordinates":[113.9199,22.5643]},"properties":{"id":267,"address":"新安街道宝城2区龙井二路27栋对面（社区办公楼三楼）","Field3":"宝安区","name":"深圳市龙井社区工作站","phone":13713729408,"lng":113.9199,"lat":22.5643,"capacity":40}},
{"type":"Feature","geometry":{"type":"Point","coordinates":[113.9108,22.5675]},"properties":{"id":268,"address":"新安街道宝城42区乐平路21号（社区办公楼三栏）","Field3":"宝安区","name":"深圳市安乐社区工作站","phone":15118179930,"lng":113.9108,"lat":22.5675,"capacity":100}},
{"type":"Feature","geometry":{"type":"Point","coordinates":[114.1462,22.5849]},"properties":{"id":269,"address":"新安街道宝安区74区布心二村西1巷1号旁","Field3":"宝安区","name":"深圳市布心社区工作站","phone":13510248663,"lng":114.1462,"lat":22.5849,"capacity":60}},
{"type":"Feature","geometry":{"type":"Point","coordinates":[113.9042,22.5742]},"properties":{"id":270,"address":"新安街道宝城24区社区活动中心","Field3":"宝安区","name":"深圳市宝民社区工作站","phone":13632700017,"lng":113.9042,"lat":22.5742,"capacity":100}},
{"type":"Feature","geometry":{"type":"Point","coordinates":[113.9076,22.5641]},"properties":{"id":271,"address":"新安一路3019号","Field3":"宝安区","name":"深圳市海乐社区工作站","phone":13613002166,"lng":113.9076,"lat":22.5641,"capacity":230}},
{"type":"Feature","geometry":{"type":"Point","coordinates":[113.9139,22.5687]},"properties":{"id":272,"address":"新安街道新圳路新安湖花园海利达幼儿园旁","Field3":"宝安区","name":"深圳市新安湖社区工作站","phone":13923774902,"lng":113.9139,"lat":22.5687,"capacity":20}},
{"type":"Feature","geometry":{"type":"Point","coordinates":[113.8963,22.5735]},"properties":{"id":273,"address":"新安街道宝城47区自由路南一巷25号(翻身实验学校背后)","Field3":"宝安区","name":"深圳市翻身社区工作站","phone":13554962739,"lng":113.8963,"lat":22.5735,"capacity":140}},
{"type":"Feature","geometry":{"type":"Point","coordinates":[113.9108,22.5675]},"properties":{"id":274,"address":"新安街道宝城7区甲岸村65栋紫岸阁（工作站二楼）","Field3":"宝安区","name":"深圳市甲岸社区工作站","phone":13824358128,"lng":113.9108,"lat":22.5675,"capacity":200}},
{"type":"Feature","geometry":{"type":"Point","coordinates":[113.8981,22.5797]},"properties":{"id":275,"address":"新安街道34区永联路品尚居105号","Field3":"宝安区","name":"深圳市文雅社区工作站","phone":13714527182,"lng":113.8981,"lat":22.5797,"capacity":80}},
{"type":"Feature","geometry":{"type":"Point","coordinates":[113.9165,22.5835]},"properties":{"id":276,"address":"新安街道宝城28区大浪社区工作站","Field3":"宝安区","name":"深圳市大浪社区工作站","phone":15818517224,"lng":113.9165,"lat":22.5835,"capacity":40}},
{"type":"Feature","geometry":{"type":"Point","coordinates":[114.0866,22.5356]},"properties":{"id":277,"address":"西乡街道悦和四街89号","Field3":"宝安区","name":"应急避难场所（深圳市海港小学)","phone":13428752619,"lng":114.0866,"lat":22.5356,"capacity":400}},
{"type":"Feature","geometry":{"type":"Point","coordinates":[113.8717,22.6167]},"properties":{"id":278,"address":"西乡街道桃源居前进二路","Field3":"宝安区","name":"应急避难场所（深圳市西乡桃源居中澳实验学校)","phone":13714271819,"lng":113.8717,"lat":22.6167,"capacity":150}},
{"type":"Feature","geometry":{"type":"Point","coordinates":[114.076,22.5288]},"properties":{"id":279,"address":"西乡街道铁岗西路2号","Field3":"宝安区","name":"应急避难场所（铁岗社区工作站)","phone":13590211628,"lng":114.076,"lat":22.5288,"capacity":80}},
{"type":"Feature","geometry":{"type":"Point","coordinates":[114.0866,22.5356]},"properties":{"id":280,"address":"西乡街道径贝新村256号","Field3":"宝安区","name":"应急避难场所（深圳市径贝小学)","phone":15989366128,"lng":114.0866,"lat":22.5356,"capacity":200}},
{"type":"Feature","geometry":{"type":"Point","coordinates":[113.8842,22.5846]},"properties":{"id":281,"address":"西乡街道龙吟二路121号","Field3":"宝安区","name":"应急避难场所（深圳市西乡中学初中部)","phone":18806645217,"lng":113.8842,"lat":22.5846,"capacity":500}},
{"type":"Feature","geometry":{"type":"Point","coordinates":[114.0866,22.5356]},"properties":{"id":282,"address":"西乡街道金海路16号","Field3":"宝安区","name":"应急避难场所（深圳市海湾中学)","phone":13590425516,"lng":114.0866,"lat":22.5356,"capacity":200}},
{"type":"Feature","geometry":{"type":"Point","coordinates":[114.0866,22.5356]},"properties":{"id":283,"address":"西乡街道固戍一路881号","Field3":"宝安区","name":"应急避难场所（深圳市固戍小学)","phone":17322448116,"lng":114.0866,"lat":22.5356,"capacity":200}},
{"type":"Feature","geometry":{"type":"Point","coordinates":[114.0866,22.5356]},"properties":{"id":284,"address":"西乡街道金海路18号","Field3":"宝安区","name":"应急避难场所（深圳市西湾小学)","phone":13714170017,"lng":114.0866,"lat":22.5356,"capacity":200}},
{"type":"Feature","geometry":{"type":"Point","coordinates":[114.0866,22.5356]},"properties":{"id":285,"address":"建安二路158号","Field3":"宝安区","name":"应急避难场所（流塘小学)","phone":18948764371,"lng":114.0866,"lat":22.5356,"capacity":50}},
{"type":"Feature","geometry":{"type":"Point","coordinates":[114.0866,22.5356]},"properties":{"id":286,"address":"宝田一路299号","Field3":"宝安区","name":"应急避难场所（凤岗小学)","phone":15999510820,"lng":114.0866,"lat":22.5356,"capacity":400}},
{"type":"Feature","geometry":{"type":"Point","coordinates":[113.8462,22.6289]},"properties":{"id":287,"address":"航城街道草围社区草围二路28号","Field3":"宝安区","name":"草围社区居委会","phone":13501560613,"lng":113.8462,"lat":22.6289,"capacity":50}},
{"type":"Feature","geometry":{"type":"Point","coordinates":[113.8893,22.5879]},"properties":{"id":288,"address":"航城街道黄麻布路34号","Field3":"宝安区","name":"黄麻布社区会堂","phone":13823649400,"lng":113.8893,"lat":22.5879,"capacity":200}},
{"type":"Feature","geometry":{"type":"Point","coordinates":[113.8705,22.6529]},"properties":{"id":289,"address":"航城街道九围新村九围路187号旁边","Field3":"宝安区","name":"九围蔗园埔新村活动中心","phone":13510541221,"lng":113.8705,"lat":22.6529,"capacity":350}},
{"type":"Feature","geometry":{"type":"Point","coordinates":[113.8685,22.6341]},"properties":{"id":290,"address":"航城街道鹤洲社区鹤洲路19号","Field3":"宝安区","name":"鹤洲社区居委会","phone":13714224423,"lng":113.8685,"lat":22.6341,"capacity":70}},
{"type":"Feature","geometry":{"type":"Point","coordinates":[113.8522,22.6206]},"properties":{"id":291,"address":"航城街道三围社区北路2号","Field3":"宝安区","name":"三围社区居委会办公楼会议室","phone":13510188566,"lng":113.8522,"lat":22.6206,"capacity":40}},
{"type":"Feature","geometry":{"type":"Point","coordinates":[113.853,22.6282]},"properties":{"id":292,"address":"航城街道钟屋一路40号","Field3":"宝安区","name":"钟屋小学","phone":13670019011,"lng":113.853,"lat":22.6282,"capacity":300}},
{"type":"Feature","geometry":{"type":"Point","coordinates":[113.8477,22.6206]},"properties":{"id":293,"address":"航城街道黄田社区利达路","Field3":"宝安区","name":"黄田小学多功能厅","phone":15989575598,"lng":113.8477,"lat":22.6206,"capacity":70}},
{"type":"Feature","geometry":{"type":"Point","coordinates":[113.8484,22.6487]},"properties":{"id":294,"address":"航城街道学府路4号","Field3":"宝安区","name":"宝安职业技术学校","phone":13823784013,"lng":113.8484,"lat":22.6487,"capacity":300}},
{"type":"Feature","geometry":{"type":"Point","coordinates":[113.8397,22.6387]},"properties":{"id":295,"address":"航城街道凯成一路1号后瑞居委会","Field3":"宝安区","name":"后瑞社区居委会","phone":13691917686,"lng":113.8397,"lat":22.6387,"capacity":60}},
{"type":"Feature","geometry":{"type":"Point","coordinates":[113.908,22.5533]},"properties":{"id":296,"address":"航城街道广深公路航城段668号","Field3":"宝安区","name":"深圳市宝安区社会福利中心","phone":13714788511,"lng":113.908,"lat":22.5533,"capacity":100}},
{"type":"Feature","geometry":{"type":"Point","coordinates":[113.866,22.6585]},"properties":{"id":297,"address":"航城街道九围看守所路","Field3":"宝安区","name":"深圳市宝安区社会救助综合服务中心","phone":13510159155,"lng":113.866,"lat":22.6585,"capacity":200}},
{"type":"Feature","geometry":{"type":"Point","coordinates":[113.8233,22.6758]},"properties":{"id":298,"address":"福永街道德丰西路57号","Field3":"宝安区","name":"福永小学","phone":13622308262,"lng":113.8233,"lat":22.6758,"capacity":700}},
{"type":"Feature","geometry":{"type":"Point","coordinates":[113.8184,22.6741]},"properties":{"id":299,"address":"福永福新街1号","Field3":"宝安区","name":"福永敬老院","phone":13612912907,"lng":113.8184,"lat":22.6741,"capacity":100}},
{"type":"Feature","geometry":{"type":"Point","coordinates":[113.8294,22.6597]},"properties":{"id":300,"address":"福永街道福围社区下十围小学拾业路18号旁","Field3":"宝安区","name":"下十围小学","phone":15989441076,"lng":113.8294,"lat":22.6597,"capacity":600}},
{"type":"Feature","geometry":{"type":"Point","coordinates":[113.8302,22.6598]},"properties":{"id":301,"address":"福永街道福围社区拾业路18号","Field3":"宝安区","name":"福围居委会","phone":15989441076,"lng":113.8302,"lat":22.6598,"capacity":50}},
{"type":"Feature","geometry":{"type":"Point","coordinates":[113.8405,22.6418]},"properties":{"id":302,"address":"福永街道兴围社区兴围小学兴业一路1号","Field3":"宝安区","name":"兴围小学","phone":13682394391,"lng":113.8405,"lat":22.6418,"capacity":500}},
{"type":"Feature","geometry":{"type":"Point","coordinates":[113.8235,22.6742]},"properties":{"id":303,"address":"福永街道怀德村祠堂","Field3":"宝安区","name":"怀德村祠堂","phone":13530290628,"lng":113.8235,"lat":22.6742,"capacity":100}},
{"type":"Feature","geometry":{"type":"Point","coordinates":[113.8298,22.6829]},"properties":{"id":304,"address":"福永街道福洲大道旁","Field3":"宝安区","name":"白石厦社区居委会","phone":13632559027,"lng":113.8298,"lat":22.6829,"capacity":200}},
{"type":"Feature","geometry":{"type":"Point","coordinates":[114.0301,22.7168]},"properties":{"id":305,"address":"福永街道白石厦东区","Field3":"宝安区","name":"福民学校","phone":13632559027,"lng":114.0301,"lat":22.7168,"capacity":300}},
{"type":"Feature","geometry":{"type":"Point","coordinates":[113.9536,22.7459]},"properties":{"id":306,"address":"福永街道凤凰社区育才路","Field3":"宝安区","name":"凤凰小学","phone":13410909803,"lng":113.9536,"lat":22.7459,"capacity":700}},
{"type":"Feature","geometry":{"type":"Point","coordinates":[113.8185,22.6712]},"properties":{"id":307,"address":"福永街道福永村西环路13号","Field3":"宝安区","name":"福永社区居委会","phone":18929356767,"lng":113.8185,"lat":22.6712,"capacity":100}},
{"type":"Feature","geometry":{"type":"Point","coordinates":[113.821,22.7086]},"properties":{"id":308,"address":"塘尾社区万里路2号","Field3":"宝安区","name":"塘尾万里学校","phone":13602592713,"lng":113.821,"lat":22.7086,"capacity":1500}},
{"type":"Feature","geometry":{"type":"Point","coordinates":[113.8169,22.7004]},"properties":{"id":309,"address":"育才路17号","Field3":"宝安区","name":"桥头小学","phone":13692208235,"lng":113.8169,"lat":22.7004,"capacity":200}},
{"type":"Feature","geometry":{"type":"Point","coordinates":[113.8123,22.6711]},"properties":{"id":310,"address":"福海街道新和社区远东中路6号","Field3":"宝安区","name":"福新小学","phone":13510934161,"lng":113.8123,"lat":22.6711,"capacity":700}},
{"type":"Feature","geometry":{"type":"Point","coordinates":[113.7986,22.6959]},"properties":{"id":311,"address":"福海街道和平社区建欣路1号","Field3":"宝安区","name":"和平社区居委会","phone":13510623278,"lng":113.7986,"lat":22.6959,"capacity":100}},
{"type":"Feature","geometry":{"type":"Point","coordinates":[113.8362,22.7004]},"properties":{"id":312,"address":"福海街道新田社区居委会大楼","Field3":"宝安区","name":"新田社区居委会","phone":13728687812,"lng":113.8362,"lat":22.7004,"capacity":100}},
{"type":"Feature","geometry":{"type":"Point","coordinates":[113.8358,22.7077]},"properties":{"id":313,"address":"福海街道稔田旧路98号稔田社区","Field3":"宝安区","name":"稔田社区工作站","phone":15989373118,"lng":113.8358,"lat":22.7077,"capacity":60}},
{"type":"Feature","geometry":{"type":"Point","coordinates":[113.8288,22.6988]},"properties":{"id":314,"address":"福海街道大洋开发区景山花园","Field3":"宝安区","name":"景山实验学校","phone":13537644632,"lng":113.8288,"lat":22.6988,"capacity":500}},
{"type":"Feature","geometry":{"type":"Point","coordinates":[113.8181,22.7085]},"properties":{"id":315,"address":"福海街道塘尾社区迎春路2号","Field3":"宝安区","name":"塘尾社区工作站","phone":13691887996,"lng":113.8181,"lat":22.7085,"capacity":200}},
{"type":"Feature","geometry":{"type":"Point","coordinates":[114.0646,22.5485]},"properties":{"id":316,"address":"福海街道大洋社区大洋路90-19号，9栋党群服务中心二楼","Field3":"宝安区","name":"大洋社区居委会","phone":18589069721,"lng":114.0646,"lat":22.5485,"capacity":200}},
{"type":"Feature","geometry":{"type":"Point","coordinates":[113.824,22.7481]},"properties":{"id":317,"address":"东岳路1号","Field3":"宝安区","name":"沙井中学","phone":13632754968,"lng":113.824,"lat":22.7481,"capacity":1000}},
{"type":"Feature","geometry":{"type":"Point","coordinates":[113.8201,22.7444]},"properties":{"id":318,"address":"环镇路88号","Field3":"宝安区","name":"荣根学校","phone":15986676421,"lng":113.8201,"lat":22.7444,"capacity":1000}},
{"type":"Feature","geometry":{"type":"Point","coordinates":[114.0805,22.5731]},"properties":{"id":319,"address":"沙壆三路","Field3":"宝安区","name":"宝安第二职业技术学校","phone":13510967300,"lng":114.0805,"lat":22.5731,"capacity":500}},
{"type":"Feature","geometry":{"type":"Point","coordinates":[113.8029,22.7469]},"properties":{"id":320,"address":"蚝乡路北侧10米","Field3":"宝安区","name":"冠群实验学校","phone":13923874353,"lng":113.8029,"lat":22.7469,"capacity":500}},
{"type":"Feature","geometry":{"type":"Point","coordinates":[113.8107,22.716]},"properties":{"id":321,"address":"沙井路3号","Field3":"宝安区","name":"华南中英文学校","phone":13682671483,"lng":113.8107,"lat":22.716,"capacity":1000}},
{"type":"Feature","geometry":{"type":"Point","coordinates":[113.8086,22.7592]},"properties":{"id":322,"address":"沙井街道福和路","Field3":"宝安区","name":"深圳市明德外语实验学校","phone":15768399582,"lng":113.8086,"lat":22.7592,"capacity":1000}},
{"type":"Feature","geometry":{"type":"Point","coordinates":[113.7908,22.7386]},"properties":{"id":323,"address":"沙井街道锦程路与新沙路交汇处","Field3":"宝安区","name":"深圳市第七高级中学","phone":13632625510,"lng":113.7908,"lat":22.7386,"capacity":1500}},
{"type":"Feature","geometry":{"type":"Point","coordinates":[113.7938,22.7177]},"properties":{"id":324,"address":"和二二路北侧50米","Field3":"宝安区","name":"和一社区工作站","phone":13428703007,"lng":113.7938,"lat":22.7177,"capacity":1000}},
{"type":"Feature","geometry":{"type":"Point","coordinates":[114.1403,22.5493]},"properties":{"id":325,"address":"新桥街道新桥一路4号","Field3":"宝安区","name":"应急避难场所(新桥小学)","phone":13242929041,"lng":114.1403,"lat":22.5493,"capacity":700}},
{"type":"Feature","geometry":{"type":"Point","coordinates":[114.0866,22.5356]},"properties":{"id":326,"address":"新桥街道黄埔满寿路2号","Field3":"宝安区","name":"应急避难场所(黄埔小学)","phone":18575576226,"lng":114.0866,"lat":22.5356,"capacity":600}},
{"type":"Feature","geometry":{"type":"Point","coordinates":[113.8423,22.7293]},"properties":{"id":327,"address":"新桥街道河滨南路2号","Field3":"宝安区","name":"应急避难场所(宝安中学（集团）第二外国语学校)","phone":13613011106,"lng":113.8423,"lat":22.7293,"capacity":500}},
{"type":"Feature","geometry":{"type":"Point","coordinates":[114.0925,22.5515]},"properties":{"id":328,"address":"新桥街道万安路238号","Field3":"宝安区","name":"应急避难场所(万丰小学)","phone":13715366960,"lng":114.0925,"lat":22.5515,"capacity":500}},
{"type":"Feature","geometry":{"type":"Point","coordinates":[113.8402,22.7302]},"properties":{"id":329,"address":"新桥街道上星路160号","Field3":"宝安区","name":"应急避难场所(华一实验学校)","phone":13423775450,"lng":113.8402,"lat":22.7302,"capacity":300}},
{"type":"Feature","geometry":{"type":"Point","coordinates":[114.0866,22.5356]},"properties":{"id":330,"address":"新桥街道新二路50号","Field3":"宝安区","name":"应急避难场所(新二礼堂)","phone":13510772481,"lng":114.0866,"lat":22.5356,"capacity":400}},
{"type":"Feature","geometry":{"type":"Point","coordinates":[113.8736,22.7656]},"properties":{"id":331,"address":"松岗街道东方大道（大田洋）","Field3":"宝安区","name":"深圳市松岗中学","phone":18682137626,"lng":113.8736,"lat":22.7656,"capacity":500}},
{"type":"Feature","geometry":{"type":"Point","coordinates":[113.8484,22.7738]},"properties":{"id":332,"address":"松岗街道滨河路24号","Field3":"宝安区","name":"深圳市松岗第一小学","phone":18927451123,"lng":113.8484,"lat":22.7738,"capacity":500}},
{"type":"Feature","geometry":{"type":"Point","coordinates":[113.8539,22.7671]},"properties":{"id":333,"address":"松岗街道东方大道东方社区","Field3":"宝安区","name":"深圳市东方小学","phone":13798246028,"lng":113.8539,"lat":22.7671,"capacity":500}},
{"type":"Feature","geometry":{"type":"Point","coordinates":[113.8394,22.7822]},"properties":{"id":334,"address":"松岗街道沙浦一路8号","Field3":"宝安区","name":"深圳市沙溪小学","phone":13760202083,"lng":113.8394,"lat":22.7822,"capacity":600}},
{"type":"Feature","geometry":{"type":"Point","coordinates":[113.85,22.7565]},"properties":{"id":335,"address":"松岗街道潭头居委会旁","Field3":"宝安区","name":"深圳市潭头小学","phone":13510596010,"lng":113.85,"lat":22.7565,"capacity":600}},
{"type":"Feature","geometry":{"type":"Point","coordinates":[113.817,22.7823]},"properties":{"id":336,"address":"松岗街道碧头社区高速公路对面","Field3":"宝安区","name":"深圳市碧头文武学校","phone":18320749613,"lng":113.817,"lat":22.7823,"capacity":300}},
{"type":"Feature","geometry":{"type":"Point","coordinates":[113.8681,22.7729]},"properties":{"id":337,"address":"松岗街道楼岗路","Field3":"宝安区","name":"深圳市东升实验学校","phone":13714748862,"lng":113.8681,"lat":22.7729,"capacity":600}},
{"type":"Feature","geometry":{"type":"Point","coordinates":[113.8674,22.7689]},"properties":{"id":338,"address":"松岗街道松岗大道26号","Field3":"宝安区","name":"深圳市松岗第二小学","phone":13510601332,"lng":113.8674,"lat":22.7689,"capacity":500}},
{"type":"Feature","geometry":{"type":"Point","coordinates":[113.8249,22.7806]},"properties":{"id":339,"address":"松岗街道江边社区五巷8号","Field3":"宝安区","name":"深圳市崇文学校","phone":13713715649,"lng":113.8249,"lat":22.7806,"capacity":500}},
{"type":"Feature","geometry":{"type":"Point","coordinates":[114.0375,22.6615]},"properties":{"id":340,"address":"松岗街道松岗村","Field3":"宝安区","name":"中英文实验学校","phone":18033052788,"lng":114.0375,"lat":22.6615,"capacity":500}},
{"type":"Feature","geometry":{"type":"Point","coordinates":[113.8474,22.7711]},"properties":{"id":341,"address":"松岗红星大道十三号","Field3":"宝安区","name":"红星工作站大楼","phone":13828848323,"lng":113.8474,"lat":22.7711,"capacity":100}},
{"type":"Feature","geometry":{"type":"Point","coordinates":[113.8317,22.7802]},"properties":{"id":342,"address":"松岗沙浦围工业大道十二号","Field3":"宝安区","name":"沙浦围股份公司","phone":13631655118,"lng":113.8317,"lat":22.7802,"capacity":250}},
{"type":"Feature","geometry":{"type":"Point","coordinates":[113.8706,22.7661]},"properties":{"id":343,"address":"东方大道18号","Field3":"宝安区","name":"松岗体育中心","phone":13827421377,"lng":113.8706,"lat":22.7661,"capacity":300}},
{"type":"Feature","geometry":{"type":"Point","coordinates":[114.0866,22.5356]},"properties":{"id":344,"address":"燕罗街道红湖路1号","Field3":"宝安区","name":"应急避难场所（标尚学校）","phone":13510286181,"lng":114.0866,"lat":22.5356,"capacity":350}},
{"type":"Feature","geometry":{"type":"Point","coordinates":[113.8598,22.7821]},"properties":{"id":345,"address":"燕罗街道燕罗路27号","Field3":"宝安区","name":"应急避难场所（陶园中英文实验学校）","phone":13713738751,"lng":113.8598,"lat":22.7821,"capacity":300}},
{"type":"Feature","geometry":{"type":"Point","coordinates":[113.8525,22.8097]},"properties":{"id":346,"address":"燕罗街道塘下涌社区物园路2号（广田路与物园路交叉口北50米）","Field3":"宝安区","name":"应急避难场所（化雨中英文小学）","phone":13760406056,"lng":113.8525,"lat":22.8097,"capacity":400}},
{"type":"Feature","geometry":{"type":"Point","coordinates":[114.0866,22.5356]},"properties":{"id":347,"address":"燕罗街道洋涌路26号","Field3":"宝安区","name":"应急避难场所（颐年院）","phone":13590161854,"lng":114.0866,"lat":22.5356,"capacity":90}},
{"type":"Feature","geometry":{"type":"Point","coordinates":[114.0866,22.5356]},"properties":{"id":348,"address":"燕罗街道燕川社区洋涌路2号","Field3":"宝安区","name":"应急避难场所（燕山学校）","phone":13434741126,"lng":114.0866,"lat":22.5356,"capacity":300}},
{"type":"Feature","geometry":{"type":"Point","coordinates":[113.9478,22.6899]},"properties":{"id":349,"address":"石岩街道官田村学园路1号","Field3":"宝安区","name":"深圳市官田学校","phone":13538299151,"lng":113.9478,"lat":22.6899,"capacity":500}},
{"type":"Feature","geometry":{"type":"Point","coordinates":[113.9633,22.6863]},"properties":{"id":350,"address":"石岩街道水田新村路","Field3":"宝安区","name":"水田实验学校","phone":15919475253,"lng":113.9633,"lat":22.6863,"capacity":800}},
{"type":"Feature","geometry":{"type":"Point","coordinates":[113.9797,22.699]},"properties":{"id":351,"address":"石岩街道德政路","Field3":"宝安区","name":"石龙社区工作站","phone":13725505602,"lng":113.9797,"lat":22.699,"capacity":300}},
{"type":"Feature","geometry":{"type":"Point","coordinates":[113.9447,22.694]},"properties":{"id":352,"address":"石岩街道上屋大道234号","Field3":"宝安区","name":"上屋小学","phone":13808807946,"lng":113.9447,"lat":22.694,"capacity":600}},
{"type":"Feature","geometry":{"type":"Point","coordinates":[113.9425,22.6785]},"properties":{"id":353,"address":"石岩街道北环路","Field3":"宝安区","name":"石岩敬老院","phone":15099928274,"lng":113.9425,"lat":22.6785,"capacity":60}},
{"type":"Feature","geometry":{"type":"Point","coordinates":[113.9019,22.6773]},"properties":{"id":354,"address":"石岩街道料坑大道8号","Field3":"宝安区","name":"料坑学校","phone":13802206194,"lng":113.9019,"lat":22.6773,"capacity":220}},
{"type":"Feature","geometry":{"type":"Point","coordinates":[113.9202,22.6639]},"properties":{"id":355,"address":"石岩街道英才路8号","Field3":"宝安区","name":"塘头小学","phone":13603071226,"lng":113.9202,"lat":22.6639,"capacity":600}},
{"type":"Feature","geometry":{"type":"Point","coordinates":[113.9331,22.6534]},"properties":{"id":356,"address":"石岩街道应人石路57号","Field3":"宝安区","name":"应人石育才学校","phone":13923716843,"lng":113.9331,"lat":22.6534,"capacity":1000}},
{"type":"Feature","geometry":{"type":"Point","coordinates":[113.9427,22.6806]},"properties":{"id":357,"address":"石岩街道罗租小学路","Field3":"宝安区","name":"罗租小学","phone":13714709537,"lng":113.9427,"lat":22.6806,"capacity":600}},
{"type":"Feature","geometry":{"type":"Point","coordinates":[114.2545,22.726]},"properties":{"id":358,"address":"宝龙街道南同大道11号","Field3":"龙岗区","name":"龙岗区救助管理站","phone":13502816766,"lng":114.2545,"lat":22.726,"capacity":50}},
{"type":"Feature","geometry":{"type":"Point","coordinates":[114.2986,22.7383]},"properties":{"id":359,"address":"宝龙街道龙新社区洪围向东路","Field3":"龙岗区","name":"建文中学中学部","phone":13510927212,"lng":114.2986,"lat":22.7383,"capacity":400}},
{"type":"Feature","geometry":{"type":"Point","coordinates":[114.2843,22.7019]},"properties":{"id":360,"address":"宝龙街道南约社区植物园路6号","Field3":"龙岗区","name":"南约小学","phone":13510675434,"lng":114.2843,"lat":22.7019,"capacity":500}},
{"type":"Feature","geometry":{"type":"Point","coordinates":[114.2993,22.7259]},"properties":{"id":361,"address":"宝龙街道龙东社区育贤路2号","Field3":"龙岗区","name":"育贤小学","phone":13420978350,"lng":114.2993,"lat":22.7259,"capacity":400}},
{"type":"Feature","geometry":{"type":"Point","coordinates":[114.3207,22.724]},"properties":{"id":362,"address":"宝龙街道同乐社区阳和路51号","Field3":"龙岗区","name":"主力小学","phone":13728680515,"lng":114.3207,"lat":22.724,"capacity":600}},
{"type":"Feature","geometry":{"type":"Point","coordinates":[114.2702,22.6909]},"properties":{"id":363,"address":"宝龙街道宝沙路宝龙社区工作站","Field3":"龙岗区","name":"宝龙学校","phone":13824395292,"lng":114.2702,"lat":22.6909,"capacity":500}},
{"type":"Feature","geometry":{"type":"Point","coordinates":[114.2968,22.6907]},"properties":{"id":364,"address":"宝龙街道宝龙二路1号","Field3":"龙岗区","name":"宝龙社区工作站","phone":13824395292,"lng":114.2968,"lat":22.6907,"capacity":200}},
{"type":"Feature","geometry":{"type":"Point","coordinates":[114.2945,22.726]},"properties":{"id":365,"address":"宝龙街道龙东社区金井路33号","Field3":"龙岗区","name":"龙东社区工作站","phone":13420978350,"lng":114.2945,"lat":22.726,"capacity":200}},
{"type":"Feature","geometry":{"type":"Point","coordinates":[114.0646,22.5485]},"properties":{"id":366,"address":"宝龙街道龙东社区三和村中和路3号","Field3":"龙岗区","name":"中心小学","phone":13420978350,"lng":114.0646,"lat":22.5485,"capacity":300}},
{"type":"Feature","geometry":{"type":"Point","coordinates":[114.1194,22.6349]},"properties":{"id":367,"address":"吉华街道三联松源路1号","Field3":"龙岗区","name":"三联储运学校","phone":13715207140,"lng":114.1194,"lat":22.6349,"capacity":500}},
{"type":"Feature","geometry":{"type":"Point","coordinates":[114.1161,22.6271]},"properties":{"id":368,"address":"吉华街道上水径东区一巷15号","Field3":"龙岗区","name":"水径小学","phone":15816867783,"lng":114.1161,"lat":22.6271,"capacity":500}},
{"type":"Feature","geometry":{"type":"Point","coordinates":[114.1186,22.661]},"properties":{"id":369,"address":"吉华街道甘坑社区甘李路4号甘李学校","Field3":"龙岗区","name":"甘李学校","phone":13826590023,"lng":114.1186,"lat":22.661,"capacity":500}},
{"type":"Feature","geometry":{"type":"Point","coordinates":[114.2048,22.6484]},"properties":{"id":370,"address":"横岗街道富康路103-1颐养院一楼（横岗敬老院）","Field3":"龙岗区","name":"横岗街道临时避险中心","phone":13925228168,"lng":114.2048,"lat":22.6484,"capacity":50}},
{"type":"Feature","geometry":{"type":"Point","coordinates":[114.1961,22.6472]},"properties":{"id":371,"address":"横岗街道龙塘路44号六约学校","Field3":"龙岗区","name":"六约学校","phone":18123836543,"lng":114.1961,"lat":22.6472,"capacity":200}},
{"type":"Feature","geometry":{"type":"Point","coordinates":[114.19,22.6389]},"properties":{"id":372,"address":"横岗街道六约社区牛始铺路43号","Field3":"龙岗区","name":"聚英小学","phone":18123836543,"lng":114.19,"lat":22.6389,"capacity":200}},
{"type":"Feature","geometry":{"type":"Point","coordinates":[114.2121,22.6494]},"properties":{"id":373,"address":"横岗街道横岗社区坝心街3号","Field3":"龙岗区","name":"横岗社区工作站","phone":13510261306,"lng":114.2121,"lat":22.6494,"capacity":100}},
{"type":"Feature","geometry":{"type":"Point","coordinates":[114.337,22.7064]},"properties":{"id":374,"address":"横岗街道四联社区兴旺路2巷18号四联社区工作站内","Field3":"龙岗区","name":"四联社区临时避险中心","phone":18038024228,"lng":114.337,"lat":22.7064,"capacity":100}},
{"type":"Feature","geometry":{"type":"Point","coordinates":[114.337,22.7064]},"properties":{"id":375,"address":"横岗街道富康路230号","Field3":"龙岗区","name":"松柏社区临时避险中心","phone":13802235222,"lng":114.337,"lat":22.7064,"capacity":70}},
{"type":"Feature","geometry":{"type":"Point","coordinates":[114.337,22.7064]},"properties":{"id":376,"address":"横岗街道茂盛路华侨新村工作站1楼","Field3":"龙岗区","name":"华侨新村临时避险中心","phone":18938979791,"lng":114.337,"lat":22.7064,"capacity":50}},
{"type":"Feature","geometry":{"type":"Point","coordinates":[114.337,22.7064]},"properties":{"id":377,"address":"横岗街道红棉一路卓越城市中心花园C区二层社区服务中心","Field3":"龙岗区","name":"华乐社区临时避险中心","phone":18718691155,"lng":114.337,"lat":22.7064,"capacity":30}},
{"type":"Feature","geometry":{"type":"Point","coordinates":[114.337,22.7064]},"properties":{"id":378,"address":"横岗街道隆盛花园S1商场二楼志盛社区工作站","Field3":"龙岗区","name":"志盛社区临时避险中心","phone":18211309296,"lng":114.337,"lat":22.7064,"capacity":50}},
{"type":"Feature","geometry":{"type":"Point","coordinates":[114.337,22.7064]},"properties":{"id":379,"address":"横岗街道康乐花园会所一楼","Field3":"龙岗区","name":"怡锦社区临时避险中心","phone":13728922824,"lng":114.337,"lat":22.7064,"capacity":50}},
{"type":"Feature","geometry":{"type":"Point","coordinates":[114.337,22.7064]},"properties":{"id":380,"address":"横岗街道梧桐路1号梧桐学校内","Field3":"龙岗区","name":"红棉社区临时避险中心","phone":13824313966,"lng":114.337,"lat":22.7064,"capacity":200}},
{"type":"Feature","geometry":{"type":"Point","coordinates":[114.2315,22.6635]},"properties":{"id":381,"address":"园山街道保安社区横坪路269号","Field3":"龙岗区","name":"龙岗区第二职业技术学校","phone":18219359600,"lng":114.2315,"lat":22.6635,"capacity":3000}},
{"type":"Feature","geometry":{"type":"Point","coordinates":[114.2354,22.6498]},"properties":{"id":382,"address":"园山街道大康社区山子下路308号","Field3":"龙岗区","name":"大康社区工作站","phone":13714741488,"lng":114.2354,"lat":22.6498,"capacity":300}},
{"type":"Feature","geometry":{"type":"Point","coordinates":[114.2306,22.6867]},"properties":{"id":383,"address":"园山街道荷坳社区荷坳路46号","Field3":"龙岗区","name":"荷坳小学","phone":13713972922,"lng":114.2306,"lat":22.6867,"capacity":600}},
{"type":"Feature","geometry":{"type":"Point","coordinates":[114.2298,22.6259]},"properties":{"id":384,"address":"园山街道西坑社区宝桐北路143号","Field3":"龙岗区","name":"西坑社区活动中心","phone":13590122443,"lng":114.2298,"lat":22.6259,"capacity":400}},
{"type":"Feature","geometry":{"type":"Point","coordinates":[114.2302,22.6771]},"properties":{"id":385,"address":"园山街道银荷社区水晶之城3楼","Field3":"龙岗区","name":"银荷社区工作站","phone":13537870600,"lng":114.2302,"lat":22.6771,"capacity":300}},
{"type":"Feature","geometry":{"type":"Point","coordinates":[114.2255,22.6367]},"properties":{"id":386,"address":"园山街道安良社区安良路193号居委会办公大楼","Field3":"龙岗区","name":"安良社区工作站","phone":18818688086,"lng":114.2255,"lat":22.6367,"capacity":300}},
{"type":"Feature","geometry":{"type":"Point","coordinates":[114.1161,22.6295]},"properties":{"id":387,"address":"园山街道保安社区窝肚村联合路8号","Field3":"龙岗区","name":"保安社区工作站","phone":13631584943,"lng":114.1161,"lat":22.6295,"capacity":300}},
{"type":"Feature","geometry":{"type":"Point","coordinates":[114.239,22.6533]},"properties":{"id":388,"address":"园山街道大康社区育英街26号","Field3":"龙岗区","name":"大康小学","phone":13724377280,"lng":114.239,"lat":22.6533,"capacity":500}},
{"type":"Feature","geometry":{"type":"Point","coordinates":[114.2284,22.6354]},"properties":{"id":389,"address":"园山街道安良社区安良路140号","Field3":"龙岗区","name":"安良小学","phone":13922819618,"lng":114.2284,"lat":22.6354,"capacity":600}},
{"type":"Feature","geometry":{"type":"Point","coordinates":[114.4981,22.5742]},"properties":{"id":390,"address":"坪地街道龙岗大道坪地段347号","Field3":"龙岗区","name":"机关后勤服务中心","phone":13714581896,"lng":114.4981,"lat":22.5742,"capacity":200}},
{"type":"Feature","geometry":{"type":"Point","coordinates":[114.0732,22.6386]},"properties":{"id":391,"address":"坂田街道长发路2061号","Field3":"龙岗区","name":"坂田小学","phone":13828742483,"lng":114.0732,"lat":22.6386,"capacity":500}},
{"type":"Feature","geometry":{"type":"Point","coordinates":[114.0841,22.6567]},"properties":{"id":392,"address":"坂田街道雪岗路1041号","Field3":"龙岗区","name":"雪象小学","phone":13510151573,"lng":114.0841,"lat":22.6567,"capacity":200}},
{"type":"Feature","geometry":{"type":"Point","coordinates":[114.0719,22.6604]},"properties":{"id":393,"address":"坂田街道居里夫人大道1号（北边）","Field3":"龙岗区","name":"宝岗小学","phone":15889426576,"lng":114.0719,"lat":22.6604,"capacity":300}},
{"type":"Feature","geometry":{"type":"Point","coordinates":[114.0621,22.6289]},"properties":{"id":394,"address":"坂田街道四季花城社区花城小学内","Field3":"龙岗区","name":"花城小学","phone":13640957430,"lng":114.0621,"lat":22.6289,"capacity":500}},
{"type":"Feature","geometry":{"type":"Point","coordinates":[114.0738,22.6193]},"properties":{"id":395,"address":"坂田街道雅园路7-99五和小学","Field3":"龙岗区","name":"五和小学","phone":13590410732,"lng":114.0738,"lat":22.6193,"capacity":200}},
{"type":"Feature","geometry":{"type":"Point","coordinates":[114.0911,22.6372]},"properties":{"id":396,"address":"坂田街道杨美村龙颈坳路99号","Field3":"龙岗区","name":"深圳实验学校坂田校区","phone":13926555955,"lng":114.0911,"lat":22.6372,"capacity":500}},
{"type":"Feature","geometry":{"type":"Point","coordinates":[114.0715,22.6104]},"properties":{"id":397,"address":"坂田街道南坑社区雅宝路1-18号","Field3":"龙岗区","name":"雅宝小学","phone":18926522113,"lng":114.0715,"lat":22.6104,"capacity":200}},
{"type":"Feature","geometry":{"type":"Point","coordinates":[114.0789,22.5503]},"properties":{"id":398,"address":"观湖街道新田社区创新工业园18号","Field3":"龙华区","name":"新田社区工作站","phone":13714280203,"lng":114.0789,"lat":22.5503,"capacity":100}},
{"type":"Feature","geometry":{"type":"Point","coordinates":[114.0656,22.7085]},"properties":{"id":399,"address":"观湖街道观城社区环观中路58号","Field3":"龙华区","name":"观城社区工作站","phone":13420977452,"lng":114.0656,"lat":22.7085,"capacity":100}},
{"type":"Feature","geometry":{"type":"Point","coordinates":[114.0767,22.7219]},"properties":{"id":400,"address":"观湖街道松元厦社区德胜路37号","Field3":"龙华区","name":"松元厦社区工作站","phone":13602623817,"lng":114.0767,"lat":22.7219,"capacity":100}},
{"type":"Feature","geometry":{"type":"Point","coordinates":[114.0836,22.6933]},"properties":{"id":401,"address":"观湖街道樟坑径社区上围村宝业路福海百货旁","Field3":"龙华区","name":"樟坑径社区党群服务中心","phone":15999551862,"lng":114.0836,"lat":22.6933,"capacity":300}},
{"type":"Feature","geometry":{"type":"Point","coordinates":[114.0539,22.7077]},"properties":{"id":402,"address":"观湖街道润城社区招商澜园小区南区7栋1楼","Field3":"龙华区","name":"润城社区党群服务中心","phone":13714753900,"lng":114.0539,"lat":22.7077,"capacity":30}},
{"type":"Feature","geometry":{"type":"Point","coordinates":[114.0724,22.6986]},"properties":{"id":403,"address":"观湖街道鹭湖社区博强路文汇幼儿园旁","Field3":"龙华区","name":"鹭湖社区居委会","phone":13682627832,"lng":114.0724,"lat":22.6986,"capacity":30}},
{"type":"Feature","geometry":{"type":"Point","coordinates":[114.0715,22.7237]},"properties":{"id":404,"address":"观湖街道观澜大道育才路1号","Field3":"龙华区","name":"观澜中学","phone":13926562968,"lng":114.0715,"lat":22.7237,"capacity":600}},
{"type":"Feature","geometry":{"type":"Point","coordinates":[114.0546,22.7124]},"properties":{"id":405,"address":"观湖街道观澜大和路314号","Field3":"龙华区","name":"观澜第二中学","phone":13923786359,"lng":114.0546,"lat":22.7124,"capacity":600}},
{"type":"Feature","geometry":{"type":"Point","coordinates":[114.0772,22.7239]},"properties":{"id":406,"address":"观湖街道松元厦社区德胜路58号","Field3":"龙华区","name":"振能小学","phone":13824375469,"lng":114.0772,"lat":22.7239,"capacity":600}},
{"type":"Feature","geometry":{"type":"Point","coordinates":[114.0353,22.7281]},"properties":{"id":407,"address":"观湖街道新田社区创新工业区1号","Field3":"龙华区","name":"深圳市龙华区教育科学研究院附属小学","phone":13603056183,"lng":114.0353,"lat":22.7281,"capacity":600}},
{"type":"Feature","geometry":{"type":"Point","coordinates":[114.0866,22.5356]},"properties":{"id":408,"address":"腾龙路与简上路交叉口东南角(和公馆附近)","Field3":"龙华区","name":"应急避难场所（上芬小学）","phone":13802284005,"lng":114.0866,"lat":22.5356,"capacity":500}},
{"type":"Feature","geometry":{"type":"Point","coordinates":[114.0257,22.6727]},"properties":{"id":409,"address":"中梅路与民顺路交叉口北150米","Field3":"龙华区","name":"应急避难场所（民治中学）","phone":13714707743,"lng":114.0257,"lat":22.6727,"capacity":1000}},
{"type":"Feature","geometry":{"type":"Point","coordinates":[114.0866,22.5356]},"properties":{"id":410,"address":"民顺路","Field3":"龙华区","name":"应急避难场所（民顺小学）","phone":13620221718,"lng":114.0866,"lat":22.5356,"capacity":1000}},
{"type":"Feature","geometry":{"type":"Point","coordinates":[114.0866,22.5356]},"properties":{"id":411,"address":"民塘路与革新街交叉口南150米","Field3":"龙华区","name":"应急避难场所（书香小学）","phone":13808809726,"lng":114.0866,"lat":22.5356,"capacity":600}},
{"type":"Feature","geometry":{"type":"Point","coordinates":[114.0257,22.6727]},"properties":{"id":412,"address":"民治大道395号","Field3":"龙华区","name":"应急避难场所（民治小学）","phone":13509656701,"lng":114.0257,"lat":22.6727,"capacity":500}},
{"type":"Feature","geometry":{"type":"Point","coordinates":[114.1435,22.5504]},"properties":{"id":413,"address":"梅龙大道502号","Field3":"龙华区","name":"应急避难场所（行知小学）","phone":13922862130,"lng":114.1435,"lat":22.5504,"capacity":500}},
{"type":"Feature","geometry":{"type":"Point","coordinates":[114.0866,22.5356]},"properties":{"id":414,"address":"民丰路220号","Field3":"龙华区","name":"应急避难场所（潜龙学校）","phone":13923779998,"lng":114.0866,"lat":22.5356,"capacity":500}},
{"type":"Feature","geometry":{"type":"Point","coordinates":[114.0866,22.5356]},"properties":{"id":415,"address":"民乐路东十七巷5号","Field3":"龙华区","name":"应急避难场所（丹堤实验学校）","phone":13802581291,"lng":114.0866,"lat":22.5356,"capacity":500}},
{"type":"Feature","geometry":{"type":"Point","coordinates":[114.1053,22.5597]},"properties":{"id":416,"address":"致远南路","Field3":"龙华区","name":"应急避难场所（玉龙学校）","phone":13603029438,"lng":114.1053,"lat":22.5597,"capacity":500}},
{"type":"Feature","geometry":{"type":"Point","coordinates":[114.238,22.7328]},"properties":{"id":417,"address":"民康路与民丰路交汇处","Field3":"龙华区","name":"应急避难场所（行知实验小学）","phone":13922862130,"lng":114.238,"lat":22.7328,"capacity":500}},
{"type":"Feature","geometry":{"type":"Point","coordinates":[114.0249,22.5521]},"properties":{"id":418,"address":"民宝路与民繁南路交接处西南面","Field3":"龙华区","name":"应急避难场所（深圳市高级中学北校区）","phone":13590185693,"lng":114.0249,"lat":22.5521,"capacity":500}},
{"type":"Feature","geometry":{"type":"Point","coordinates":[114.0924,22.5382]},"properties":{"id":419,"address":"民旺路南侧60米","Field3":"龙华区","name":"应急避难场所（民治文体中心）","phone":13714766658,"lng":114.0924,"lat":22.5382,"capacity":300}},
{"type":"Feature","geometry":{"type":"Point","coordinates":[114.0866,22.5356]},"properties":{"id":420,"address":"金龙路","Field3":"龙华区","name":"应急避难场所（白石龙市场）","phone":13714127825,"lng":114.0866,"lat":22.5356,"capacity":200}},
{"type":"Feature","geometry":{"type":"Point","coordinates":[114.076,22.5288]},"properties":{"id":421,"address":"龙峰二路183正西方向77米","Field3":"龙华区","name":"应急避难场所（上芬社区工作站）","phone":13430781539,"lng":114.076,"lat":22.5288,"capacity":200}},
{"type":"Feature","geometry":{"type":"Point","coordinates":[114.076,22.5288]},"properties":{"id":422,"address":"滢水三路南侧10米","Field3":"龙华区","name":"应急避难场所（民乐社区工作站）","phone":13760229928,"lng":114.076,"lat":22.5288,"capacity":200}},
{"type":"Feature","geometry":{"type":"Point","coordinates":[114.076,22.5288]},"properties":{"id":423,"address":"民治大道799号新澜大厦2/5楼","Field3":"龙华区","name":"应急避难场所(新牛社区工作站)","phone":13603018075,"lng":114.076,"lat":22.5288,"capacity":200}},
{"type":"Feature","geometry":{"type":"Point","coordinates":[114.076,22.5288]},"properties":{"id":424,"address":"新区大道997号附近","Field3":"龙华区","name":"应急避难场所(龙塘社区工作站)","phone":13823559659,"lng":114.076,"lat":22.5288,"capacity":200}},
{"type":"Feature","geometry":{"type":"Point","coordinates":[114.076,22.5288]},"properties":{"id":425,"address":"民治第一工业区5","Field3":"龙华区","name":"应急避难场所(民强社区工作站)","phone":13570825296,"lng":114.076,"lat":22.5288,"capacity":200}},
{"type":"Feature","geometry":{"type":"Point","coordinates":[114.076,22.5288]},"properties":{"id":426,"address":"布龙路7栋负一楼","Field3":"龙华区","name":"应急避难场所(大岭社区工作站)","phone":13682333300,"lng":114.076,"lat":22.5288,"capacity":200}},
{"type":"Feature","geometry":{"type":"Point","coordinates":[114.076,22.5288]},"properties":{"id":427,"address":"创业花园综合楼240栋","Field3":"龙华区","name":"应急避难场所(北站社区工作站)","phone":13713843095,"lng":114.076,"lat":22.5288,"capacity":200}},
{"type":"Feature","geometry":{"type":"Point","coordinates":[114.076,22.5288]},"properties":{"id":428,"address":"向南四区24向南商业大厦","Field3":"龙华区","name":"应急避难场所(樟坑社区工作站)","phone":13828832211,"lng":114.076,"lat":22.5288,"capacity":300}},
{"type":"Feature","geometry":{"type":"Point","coordinates":[114.0225,22.538]},"properties":{"id":429,"address":"新区大道352号","Field3":"龙华区","name":"应急避难场所(北站救助服务点)","phone":13651427288,"lng":114.0225,"lat":22.538,"capacity":100}},
{"type":"Feature","geometry":{"type":"Point","coordinates":[114.0303,22.6602]},"properties":{"id":430,"address":"龙华景华新村景龙社区综合服务大楼二楼","Field3":"龙华区","name":"景龙社区工作站","phone":23345116,"lng":114.0303,"lat":22.6602,"capacity":200}},
{"type":"Feature","geometry":{"type":"Point","coordinates":[114.0274,22.665]},"properties":{"id":431,"address":"龙华华园道316号","Field3":"龙华区","name":"龙华中心小学","phone":18826528633,"lng":114.0274,"lat":22.665,"capacity":816}},
{"type":"Feature","geometry":{"type":"Point","coordinates":[114.0555,22.6727]},"properties":{"id":432,"address":"龙华清湖社区老年人活动中心一楼","Field3":"龙华区","name":"清湖社区工作站","phone":13713900273,"lng":114.0555,"lat":22.6727,"capacity":300}},
{"type":"Feature","geometry":{"type":"Point","coordinates":[114.0495,22.6767]},"properties":{"id":433,"address":"龙华街道清华东路135号","Field3":"龙华区","name":"龙华清湖小学","phone":13603054200,"lng":114.0495,"lat":22.6767,"capacity":315}},
{"type":"Feature","geometry":{"type":"Point","coordinates":[114.1161,22.6295]},"properties":{"id":434,"address":"龙华油松民清路50号","Field3":"龙华区","name":"松和社区工作站","phone":13923463038,"lng":114.1161,"lat":22.6295,"capacity":200}},
{"type":"Feature","geometry":{"type":"Point","coordinates":[114.0476,22.6481]},"properties":{"id":435,"address":"龙华民清路24号","Field3":"龙华区","name":"松和小学","phone":13603029597,"lng":114.0476,"lat":22.6481,"capacity":500}},
{"type":"Feature","geometry":{"type":"Point","coordinates":[114.0578,22.6422]},"properties":{"id":436,"address":"龙华东环二路港深时代2楼","Field3":"龙华区","name":"油松工作站","phone":13724359456,"lng":114.0578,"lat":22.6422,"capacity":200}},
{"type":"Feature","geometry":{"type":"Point","coordinates":[114.0255,22.6724]},"properties":{"id":437,"address":"龙华大浪南路华联社区工作站一楼","Field3":"龙华区","name":"华联社区工作站","phone":13530233799,"lng":114.0255,"lat":22.6724,"capacity":300}},
{"type":"Feature","geometry":{"type":"Point","coordinates":[114.0411,22.6602]},"properties":{"id":438,"address":"建设路66号","Field3":"龙华区","name":"新华中学","phone":13510067151,"lng":114.0411,"lat":22.6602,"capacity":500}},
{"type":"Feature","geometry":{"type":"Point","coordinates":[114.0512,22.7027]},"properties":{"id":439,"address":"龙华桃苑新村100号龙华敬老院","Field3":"龙华区","name":"龙华敬老院","phone":13713815246,"lng":114.0512,"lat":22.7027,"capacity":180}},
{"type":"Feature","geometry":{"type":"Point","coordinates":[114.0337,22.6633]},"properties":{"id":440,"address":"龙华新城商业中心A座1楼","Field3":"龙华区","name":"三联社区工作站","phone":13692204455,"lng":114.0337,"lat":22.6633,"capacity":200}},
{"type":"Feature","geometry":{"type":"Point","coordinates":[114.0266,22.667]},"properties":{"id":441,"address":"龙华街道龙园社区工作站一楼","Field3":"龙华区","name":"龙园社区工作站","phone":13682306613,"lng":114.0266,"lat":22.667,"capacity":20}},
{"type":"Feature","geometry":{"type":"Point","coordinates":[114.0362,22.6645]},"properties":{"id":442,"address":"龙华龙观路弓村环山路","Field3":"龙华区","name":"龙华第二小学","phone":13682595174,"lng":114.0362,"lat":22.6645,"capacity":200}},
{"type":"Feature","geometry":{"type":"Point","coordinates":[114.0309,22.6694]},"properties":{"id":443,"address":"龙华龙观东路88号","Field3":"龙华区","name":"三联永恒学校","phone":13631569515,"lng":114.0309,"lat":22.6694,"capacity":300}},
{"type":"Feature","geometry":{"type":"Point","coordinates":[114.0375,22.6615]},"properties":{"id":444,"address":"龙华和平东路161号","Field3":"龙华区","name":"龙华中英文实验学校","phone":18218784599,"lng":114.0375,"lat":22.6615,"capacity":300}},
{"type":"Feature","geometry":{"type":"Point","coordinates":[114.0198,22.6759]},"properties":{"id":445,"address":"龙华华联社区墩背新村二区","Field3":"龙华区","name":"墩背小学","phone":15919804184,"lng":114.0198,"lat":22.6759,"capacity":300}},
{"type":"Feature","geometry":{"type":"Point","coordinates":[114.019,22.6665]},"properties":{"id":446,"address":"龙华牛地埔爱民路13号","Field3":"龙华区","name":"龙丰学校","phone":13713776434,"lng":114.019,"lat":22.6665,"capacity":500}},
{"type":"Feature","geometry":{"type":"Point","coordinates":[114.0503,22.6415]},"properties":{"id":447,"address":"龙华上油松村170号","Field3":"龙华区","name":"展华实验学校","phone":13798477301,"lng":114.0503,"lat":22.6415,"capacity":300}},
{"type":"Feature","geometry":{"type":"Point","coordinates":[114.0215,22.6627]},"properties":{"id":448,"address":"龙华公园路1号","Field3":"龙华区","name":"龙华中学","phone":13603016840,"lng":114.0215,"lat":22.6627,"capacity":500}},
{"type":"Feature","geometry":{"type":"Point","coordinates":[114.0349,22.6791]},"properties":{"id":449,"address":"联富华庭北50米(清泉路东)","Field3":"龙华区","name":"玉翠社区工作站","phone":13713814081,"lng":114.0349,"lat":22.6791,"capacity":50}},
{"type":"Feature","geometry":{"type":"Point","coordinates":[114.0538,22.6483]},"properties":{"id":450,"address":"东环一路64号","Field3":"龙华区","name":"富康社区工作站","phone":13480971883,"lng":114.0538,"lat":22.6483,"capacity":50}},
{"type":"Feature","geometry":{"type":"Point","coordinates":[113.9165,22.5835]},"properties":{"id":451,"address":"大浪街道下岭排工业区1栋东南方向139米","Field3":"龙华区","name":"大浪社区工作站","phone":18123946896,"lng":113.9165,"lat":22.5835,"capacity":200}},
{"type":"Feature","geometry":{"type":"Point","coordinates":[114.0088,22.6967]},"properties":{"id":452,"address":"大浪街道上岭排老村56号旁","Field3":"龙华区","name":"上岭排居委会","phone":13670208889,"lng":114.0088,"lat":22.6967,"capacity":100}},
{"type":"Feature","geometry":{"type":"Point","coordinates":[114.0177,22.6924]},"properties":{"id":453,"address":"大浪街道罗屋围新村76号109","Field3":"龙华区","name":"罗屋围居委会","phone":13823190006,"lng":114.0177,"lat":22.6924,"capacity":100}},
{"type":"Feature","geometry":{"type":"Point","coordinates":[114.008,22.6995]},"properties":{"id":454,"address":"大浪街道永乐路48号","Field3":"龙华区","name":"大浪实验学校","phone":13902311909,"lng":114.008,"lat":22.6995,"capacity":300}},
{"type":"Feature","geometry":{"type":"Point","coordinates":[114.0027,22.7056]},"properties":{"id":455,"address":"大浪街道石凹同富邨工业园89栋","Field3":"龙华区","name":"新石社区工作站","phone":13902442485,"lng":114.0027,"lat":22.7056,"capacity":200}},
{"type":"Feature","geometry":{"type":"Point","coordinates":[114,22.7032]},"properties":{"id":456,"address":"大浪街道大浪北路石凹一区156栋","Field3":"龙华区","name":"石凹居委会","phone":13590188278,"lng":114,"lat":22.7032,"capacity":100}},
{"type":"Feature","geometry":{"type":"Point","coordinates":[114.3294,22.7714]},"properties":{"id":457,"address":"大浪街道新围社区华宁路旁办公楼","Field3":"龙华区","name":"新围居委会","phone":13902442485,"lng":114.3294,"lat":22.7714,"capacity":100}},
{"type":"Feature","geometry":{"type":"Point","coordinates":[114.0084,22.6894]},"properties":{"id":458,"address":"大浪街道华兴路富隆特工业园1栋一楼","Field3":"龙华区","name":"浪口社区工作站","phone":13602555996,"lng":114.0084,"lat":22.6894,"capacity":100}},
{"type":"Feature","geometry":{"type":"Point","coordinates":[114.017,22.6838]},"properties":{"id":459,"address":"大浪街道大浪南路与浪口一路交叉口东北50米（浪口村委）旁","Field3":"龙华区","name":"浪口居委会","phone":13714255048,"lng":114.017,"lat":22.6838,"capacity":100}},
{"type":"Feature","geometry":{"type":"Point","coordinates":[114.0096,22.6911]},"properties":{"id":460,"address":"大浪街道大浪南路447号","Field3":"龙华区","name":"大浪爱义学校","phone":15818645510,"lng":114.0096,"lat":22.6911,"capacity":300}},
{"type":"Feature","geometry":{"type":"Point","coordinates":[114.0008,22.6793]},"properties":{"id":461,"address":"大浪街道华繁路旁同胜综合小区27正西方向64米","Field3":"龙华区","name":"同胜社区工作站","phone":13530933238,"lng":114.0008,"lat":22.6793,"capacity":200}},
{"type":"Feature","geometry":{"type":"Point","coordinates":[113.9873,22.6869]},"properties":{"id":462,"address":"大浪街道上横朗新村244-1正西方向107米","Field3":"龙华区","name":"同胜学校","phone":13923865841,"lng":113.9873,"lat":22.6869,"capacity":300}},
{"type":"Feature","geometry":{"type":"Point","coordinates":[114.014,22.664]},"properties":{"id":463,"address":"大浪街道龙观西路高峰大厦","Field3":"龙华区","name":"高峰社区工作站","phone":13828831688,"lng":114.014,"lat":22.664,"capacity":200}},
{"type":"Feature","geometry":{"type":"Point","coordinates":[114.0152,22.6561]},"properties":{"id":464,"address":"大浪街道赤岭头新二村1巷2号(老村监控室)","Field3":"龙华区","name":"赤岭头居委会","phone":13828879236,"lng":114.0152,"lat":22.6561,"capacity":100}},
{"type":"Feature","geometry":{"type":"Point","coordinates":[114.0172,22.6604]},"properties":{"id":465,"address":"大浪街道工业西路219号","Field3":"龙华区","name":"高峰学校","phone":13510386673,"lng":114.0172,"lat":22.6604,"capacity":300}},
{"type":"Feature","geometry":{"type":"Point","coordinates":[114.013,22.6533]},"properties":{"id":466,"address":"大浪街道陶吓社区龙峰三路1号","Field3":"龙华区","name":"锦华实验学校","phone":13322927070,"lng":114.013,"lat":22.6533,"capacity":300}},
{"type":"Feature","geometry":{"type":"Point","coordinates":[114.0217,22.6538]},"properties":{"id":467,"address":"大浪街道龙华路龙胜社区党群服务中心（原卫生监督所）","Field3":"龙华区","name":"龙胜社区工作站","phone":13902478956,"lng":114.0217,"lat":22.6538,"capacity":50}},
{"type":"Feature","geometry":{"type":"Point","coordinates":[114.0285,22.6456]},"properties":{"id":468,"address":"大浪街道民塘路566号特发和平里二期紫荆阁裙楼","Field3":"龙华区","name":"龙平社区工作站","phone":13825224455,"lng":114.0285,"lat":22.6456,"capacity":100}},
{"type":"Feature","geometry":{"type":"Point","coordinates":[114.0764,22.5307]},"properties":{"id":469,"address":"悦兴路186号","Field3":"龙华区","name":"福民社区工作站","phone":13928439394,"lng":114.0764,"lat":22.5307,"capacity":100}},
{"type":"Feature","geometry":{"type":"Point","coordinates":[114.0324,22.73]},"properties":{"id":470,"address":"福前路109号","Field3":"龙华区","name":"桔塘社区工作站","phone":13632642925,"lng":114.0324,"lat":22.73,"capacity":100}},
{"type":"Feature","geometry":{"type":"Point","coordinates":[114.0233,22.7441]},"properties":{"id":471,"address":"章阁社区塘前村永航路新智学校","Field3":"龙华区","name":"新智学校","phone":13590309783,"lng":114.0233,"lat":22.7441,"capacity":500}},
{"type":"Feature","geometry":{"type":"Point","coordinates":[114.0466,22.706]},"properties":{"id":472,"address":"观澜大道157号","Field3":"龙华区","name":"茜坑社区工作站","phone":13510170668,"lng":114.0466,"lat":22.706,"capacity":30}},
{"type":"Feature","geometry":{"type":"Point","coordinates":[114.2937,22.5977]},"properties":{"id":473,"address":"大水坑路4号","Field3":"龙华区","name":"大水坑小学","phone":13902926890,"lng":114.2937,"lat":22.5977,"capacity":500}},
{"type":"Feature","geometry":{"type":"Point","coordinates":[114.0509,22.7123]},"properties":{"id":474,"address":"观澜大道180号","Field3":"龙华区","name":"观澜二小","phone":13510726672,"lng":114.0509,"lat":22.7123,"capacity":500}},
{"type":"Feature","geometry":{"type":"Point","coordinates":[114.076,22.5288]},"properties":{"id":475,"address":"桂花社区桂花路139号","Field3":"宝安区","name":"应急避难场所(桂花社区工作站）","phone":15811809060,"lng":114.076,"lat":22.5288,"capacity":100}},
{"type":"Feature","geometry":{"type":"Point","coordinates":[114.076,22.5288]},"properties":{"id":476,"address":"桂花第二市场26号","Field3":"宝安区","name":"应急避难场所(桂香社区工作站）","phone":13760373788,"lng":114.076,"lat":22.5288,"capacity":100}},
{"type":"Feature","geometry":{"type":"Point","coordinates":[114.076,22.5288]},"properties":{"id":477,"address":"君子布社区环观南路66号","Field3":"宝安区","name":"应急避难场所(君子布社区工作站）","phone":13760163929,"lng":114.076,"lat":22.5288,"capacity":100}},
{"type":"Feature","geometry":{"type":"Point","coordinates":[114.076,22.5288]},"properties":{"id":478,"address":"牛湖社区坳顶村222号","Field3":"宝安区","name":"应急避难场所(牛湖社区工作站）","phone":13682555067,"lng":114.076,"lat":22.5288,"capacity":100}},
{"type":"Feature","geometry":{"type":"Point","coordinates":[114.076,22.5288]},"properties":{"id":479,"address":"广培社区广培北路57号","Field3":"宝安区","name":"应急避难场所(广培社区工作站","phone":13510998570,"lng":114.076,"lat":22.5288,"capacity":100}},
{"type":"Feature","geometry":{"type":"Point","coordinates":[114.076,22.5288]},"properties":{"id":480,"address":"库坑社区同富裕工业区8号","Field3":"宝安区","name":"应急避难场所(库坑社区工作站）","phone":13590184834,"lng":114.076,"lat":22.5288,"capacity":100}},
{"type":"Feature","geometry":{"type":"Point","coordinates":[114.076,22.5288]},"properties":{"id":481,"address":"桂月路314号","Field3":"宝安区","name":"应急避难场所(大富社区工作站）","phone":13509618428,"lng":114.076,"lat":22.5288,"capacity":100}},
{"type":"Feature","geometry":{"type":"Point","coordinates":[114.076,22.5288]},"properties":{"id":482,"address":"黎光社区新围199号","Field3":"宝安区","name":"应急避难场所(黎光社区工作站）","phone":13510271727,"lng":114.076,"lat":22.5288,"capacity":100}},
{"type":"Feature","geometry":{"type":"Point","coordinates":[114.076,22.5288]},"properties":{"id":483,"address":"观光路1305号B栋1楼","Field3":"宝安区","name":"应急避难场所(新澜社区工作站）","phone":13926556288,"lng":114.076,"lat":22.5288,"capacity":100}},
{"type":"Feature","geometry":{"type":"Point","coordinates":[114.076,22.5288]},"properties":{"id":484,"address":"大水田社区裕新路328号","Field3":"宝安区","name":"应急避难场所(大水田社区工作站）","phone":13632937485,"lng":114.076,"lat":22.5288,"capacity":100}},
{"type":"Feature","geometry":{"type":"Point","coordinates":[114.0257,22.6727]},"properties":{"id":485,"address":"新澜社区新澜大街94号","Field3":"宝安区","name":"应急避难场所(观澜中心小学）","phone":13510221172,"lng":114.0257,"lat":22.6727,"capacity":500}},
{"type":"Feature","geometry":{"type":"Point","coordinates":[114.0866,22.5356]},"properties":{"id":486,"address":"牛湖社区裕隆路1号","Field3":"宝安区","name":"应急避难场所(广培小学）","phone":13923850832,"lng":114.0866,"lat":22.5356,"capacity":500}},
{"type":"Feature","geometry":{"type":"Point","coordinates":[114.0866,22.5356]},"properties":{"id":487,"address":"库坑社区泗黎路111号","Field3":"宝安区","name":"应急避难场所(库坑小学）","phone":18620316861,"lng":114.0866,"lat":22.5356,"capacity":250}},
{"type":"Feature","geometry":{"type":"Point","coordinates":[114.3367,22.6983]},"properties":{"id":488,"address":"坪山街道六联社区东成路8号","Field3":"坪山区","name":"六联社区工作站","phone":13570819037,"lng":114.3367,"lat":22.6983,"capacity":80}},
{"type":"Feature","geometry":{"type":"Point","coordinates":[114.3572,22.7154]},"properties":{"id":489,"address":"坪山实验学校行政一路","Field3":"坪山区","name":"坪山区实验学校","phone":18128839897,"lng":114.3572,"lat":22.7154,"capacity":300}},
{"type":"Feature","geometry":{"type":"Point","coordinates":[114.3461,22.6981]},"properties":{"id":490,"address":"六联小学（迎春路45号）","Field3":"坪山区","name":"六联小学","phone":13728632113,"lng":114.3461,"lat":22.6981,"capacity":300}},
{"type":"Feature","geometry":{"type":"Point","coordinates":[114.3547,22.692]},"properties":{"id":491,"address":"坪山中学（东纵路296号）","Field3":"坪山区","name":"坪山中学","phone":13530394100,"lng":114.3547,"lat":22.692,"capacity":500}},
{"type":"Feature","geometry":{"type":"Point","coordinates":[114.1211,22.5447]},"properties":{"id":492,"address":"坪山街道中心西2巷26号","Field3":"坪山区","name":"和平社区工作站","phone":15999564633,"lng":114.1211,"lat":22.5447,"capacity":70}},
{"type":"Feature","geometry":{"type":"Point","coordinates":[114.3573,22.6963]},"properties":{"id":493,"address":"坪山街道立北小区四巷 11 号","Field3":"坪山区","name":"坪山社区工作站","phone":13714595995,"lng":114.3573,"lat":22.6963,"capacity":60}},
{"type":"Feature","geometry":{"type":"Point","coordinates":[114.3753,22.7425]},"properties":{"id":494,"address":"坑梓街道吉康西路","Field3":"坪山区","name":"坑梓中心小学","phone":13713927487,"lng":114.3753,"lat":22.7425,"capacity":300}},
{"type":"Feature","geometry":{"type":"Point","coordinates":[114.3767,22.7503]},"properties":{"id":495,"address":"坑梓人民西路1号","Field3":"坪山区","name":"坑梓社区工作站","phone":13590178880,"lng":114.3767,"lat":22.7503,"capacity":80}},
{"type":"Feature","geometry":{"type":"Point","coordinates":[114.3829,22.7514]},"properties":{"id":496,"address":"坑梓人民西路32号","Field3":"坪山区","name":"秀新社区工作站","phone":13421328563,"lng":114.3829,"lat":22.7514,"capacity":100}},
{"type":"Feature","geometry":{"type":"Point","coordinates":[114.4071,22.7589]},"properties":{"id":497,"address":"金沙社区金康路72号","Field3":"坪山区","name":"金沙社区工作站","phone":13632789222,"lng":114.4071,"lat":22.7589,"capacity":200}},
{"type":"Feature","geometry":{"type":"Point","coordinates":[114.4082,22.7628]},"properties":{"id":498,"address":"沙田社区南路1号","Field3":"坪山区","name":"沙田社区工作站","phone":13510269823,"lng":114.4082,"lat":22.7628,"capacity":100}},
{"type":"Feature","geometry":{"type":"Point","coordinates":[114.4068,22.7577]},"properties":{"id":499,"address":"坑梓街道坑梓金康路69 号","Field3":"坪山区","name":"金田小学","phone":18898742910,"lng":114.4068,"lat":22.7577,"capacity":300}},
{"type":"Feature","geometry":{"type":"Point","coordinates":[114.3693,22.7068]},"properties":{"id":500,"address":"燕子岭五路海昱生活区南布社区工作站","Field3":"坪山区","name":"南布社区工作站","phone":15002068707,"lng":114.3693,"lat":22.7068,"capacity":100}},
{"type":"Feature","geometry":{"type":"Point","coordinates":[114.3651,22.7615]},"properties":{"id":501,"address":"龙田街道龙兴北路51号","Field3":"坪山区","name":"龙田小学","phone":13823716699,"lng":114.3651,"lat":22.7615,"capacity":200}},
{"type":"Feature","geometry":{"type":"Point","coordinates":[114.3774,22.6902]},"properties":{"id":502,"address":"竹坑社区居委会（竹坑路16号）","Field3":"坪山区","name":"竹坑社区工作站","phone":13723713228,"lng":114.3774,"lat":22.6902,"capacity":150}},
{"type":"Feature","geometry":{"type":"Point","coordinates":[114.3649,22.733]},"properties":{"id":503,"address":"老坑社区工作站旁","Field3":"坪山区","name":"老坑社区工作站","phone":13590314151,"lng":114.3649,"lat":22.733,"capacity":150}},
{"type":"Feature","geometry":{"type":"Point","coordinates":[114.3698,22.7614]},"properties":{"id":504,"address":"坑垶办事处龙田社区龙兴北路2号","Field3":"坪山区","name":"龙田社区警务室","phone":15820489918,"lng":114.3698,"lat":22.7614,"capacity":50}},
{"type":"Feature","geometry":{"type":"Point","coordinates":[114.5002,22.568]},"properties":{"id":505,"address":"龙田街道老坑社区东坑 83 号","Field3":"坪山区","name":"东坑居民小组办公楼","phone":13590324925,"lng":114.5002,"lat":22.568,"capacity":100}},
{"type":"Feature","geometry":{"type":"Point","coordinates":[114.3868,22.6978]},"properties":{"id":506,"address":"石井工作站金田路15号","Field3":"坪山区","name":"石井社区工作站","phone":15099902672,"lng":114.3868,"lat":22.6978,"capacity":30}},
{"type":"Feature","geometry":{"type":"Point","coordinates":[114.3774,22.6902]},"properties":{"id":507,"address":"石井街道坪葵路189号","Field3":"坪山区","name":"金龟社区工作站","phone":13510922471,"lng":114.3774,"lat":22.6902,"capacity":60}},
{"type":"Feature","geometry":{"type":"Point","coordinates":[114.3774,22.6902]},"properties":{"id":508,"address":"田头社区工作站（金田路212号）","Field3":"坪山区","name":"田头社区工作站","phone":13714493877,"lng":114.3774,"lat":22.6902,"capacity":200}},
{"type":"Feature","geometry":{"type":"Point","coordinates":[113.9536,22.6835]},"properties":{"id":509,"address":"田心社区居委会（金田路348号）","Field3":"坪山区","name":"田心社区居委大楼","phone":13510131263,"lng":113.9536,"lat":22.6835,"capacity":200}},
{"type":"Feature","geometry":{"type":"Point","coordinates":[114.3868,22.6976]},"properties":{"id":510,"address":"石井街道金田路 151号","Field3":"坪山区","name":"石井社区井子吓居民小组","phone":13714888531,"lng":114.3868,"lat":22.6976,"capacity":60}},
{"type":"Feature","geometry":{"type":"Point","coordinates":[114.3825,22.6935]},"properties":{"id":511,"address":"坪山第二小学（东纵路7号）","Field3":"坪山区","name":"坪山第二小学","phone":13631631430,"lng":114.3825,"lat":22.6935,"capacity":300}},
{"type":"Feature","geometry":{"type":"Point","coordinates":[114.3774,22.6902]},"properties":{"id":512,"address":"沙坣同富裕工业区6栋","Field3":"坪山区","name":"沙坣社区工作站","phone":15017922453,"lng":114.3774,"lat":22.6902,"capacity":50}},
{"type":"Feature","geometry":{"type":"Point","coordinates":[114.1161,22.6295]},"properties":{"id":513,"address":"坪山区坪环路36号","Field3":"坪山区","name":"坪环社区工作站","phone":13926516236,"lng":114.1161,"lat":22.6295,"capacity":50}},
{"type":"Feature","geometry":{"type":"Point","coordinates":[114.3602,22.6903]},"properties":{"id":514,"address":"江岭社区居委会","Field3":"坪山区","name":"江岭社区工作站","phone":13760311301,"lng":114.3602,"lat":22.6903,"capacity":150}},
{"type":"Feature","geometry":{"type":"Point","coordinates":[114.3547,22.692]},"properties":{"id":515,"address":"马峦街道振环路 4 号","Field3":"坪山区","name":"中山中学","phone":18038177278,"lng":114.3547,"lat":22.692,"capacity":300}},
{"type":"Feature","geometry":{"type":"Point","coordinates":[114.339,22.6832]},"properties":{"id":516,"address":"马峦街道泰安路 3 号","Field3":"坪山区","name":"中山小学","phone":15013521811,"lng":114.339,"lat":22.6832,"capacity":300}},
{"type":"Feature","geometry":{"type":"Point","coordinates":[114.247,22.6543]},"properties":{"id":517,"address":"马峦街道坪环大万居民小组同富路18号2楼","Field3":"坪山区","name":"坪环社区大万居民小组办公楼","phone":18566658245,"lng":114.247,"lat":22.6543,"capacity":30}},
{"type":"Feature","geometry":{"type":"Point","coordinates":[114.2939,22.6699]},"properties":{"id":518,"address":"碧岭社区坑边路22号","Field3":"坪山区","name":"碧岭小学","phone":13544034422,"lng":114.2939,"lat":22.6699,"capacity":250}},
{"type":"Feature","geometry":{"type":"Point","coordinates":[114.1161,22.6295]},"properties":{"id":519,"address":"碧岭社区风顺路28号","Field3":"坪山区","name":"碧岭社区工作站","phone":13714493683,"lng":114.1161,"lat":22.6295,"capacity":20}},
{"type":"Feature","geometry":{"type":"Point","coordinates":[114.3334,22.6794]},"properties":{"id":520,"address":"沙湖社区同富路238号","Field3":"坪山区","name":"沙湖社区工作站","phone":13418870108,"lng":114.3334,"lat":22.6794,"capacity":100}},
{"type":"Feature","geometry":{"type":"Point","coordinates":[114.3214,22.6757]},"properties":{"id":521,"address":"汤坑小学（同裕路1号）","Field3":"坪山区","name":"汤坑小学","phone":15889632053,"lng":114.3214,"lat":22.6757,"capacity":500}},
{"type":"Feature","geometry":{"type":"Point","coordinates":[114.3223,22.672]},"properties":{"id":522,"address":"碧岭街道坪山首座 4栋 6 楼电教室","Field3":"坪山区","name":"汤坑社区工作站","phone":13823343319,"lng":114.3223,"lat":22.672,"capacity":80}},
{"type":"Feature","geometry":{"type":"Point","coordinates":[114.321,22.6815]},"properties":{"id":523,"address":"碧岭街道沙湖社区新屋路 78 号 4 栋","Field3":"坪山区","name":"沙湖社区新屋居民小组办公楼","phone":13418870108,"lng":114.321,"lat":22.6815,"capacity":40}},
{"type":"Feature","geometry":{"type":"Point","coordinates":[113.9538,22.8185]},"properties":{"id":524,"address":"光明街道光明社区碧园路2号","Field3":"光明区","name":"光明中学室内应急避难场所","phone":15889569501,"lng":113.9538,"lat":22.8185,"capacity":800}},
{"type":"Feature","geometry":{"type":"Point","coordinates":[113.9538,22.8185]},"properties":{"id":525,"address":"光明街道光明社区华夏路40号","Field3":"光明区","name":"光明社区工作站室内应急避难场所","phone":13570808900,"lng":113.9538,"lat":22.8185,"capacity":50}},
{"type":"Feature","geometry":{"type":"Point","coordinates":[113.9452,22.7645]},"properties":{"id":526,"address":"光明街道光明大道509号","Field3":"光明区","name":"东周小学室内应急避难场所","phone":13603060650,"lng":113.9452,"lat":22.7645,"capacity":600}},
{"type":"Feature","geometry":{"type":"Point","coordinates":[113.9729,22.7701]},"properties":{"id":527,"address":"光明街道迳口社区工作站101室","Field3":"光明区","name":"迳口社区工作站室内应急避难场所","phone":13570883128,"lng":113.9729,"lat":22.7701,"capacity":50}},
{"type":"Feature","geometry":{"type":"Point","coordinates":[113.9191,22.5292]},"properties":{"id":528,"address":"光明街道白花社区白花洞股份公司大楼一楼","Field3":"光明区","name":"白花洞股份公司大楼室内应急避难场所","phone":13510921138,"lng":113.9191,"lat":22.5292,"capacity":500}},
{"type":"Feature","geometry":{"type":"Point","coordinates":[113.967,22.7436]},"properties":{"id":529,"address":"光明街道观光路华强创意园附近","Field3":"光明区","name":"育新学校室内应急避难场所","phone":18938973925,"lng":113.967,"lat":22.7436,"capacity":200}},
{"type":"Feature","geometry":{"type":"Point","coordinates":[113.9538,22.8185]},"properties":{"id":530,"address":"光明街道迳口社区光翠路光明成校","Field3":"光明区","name":"光明成校室内应急避难场所","phone":13823567398,"lng":113.9538,"lat":22.8185,"capacity":600}},
{"type":"Feature","geometry":{"type":"Point","coordinates":[113.954,22.7614]},"properties":{"id":531,"address":"光明街道光明社区河心南路4号","Field3":"光明区","name":"光明小学室内应急避难场所","phone":13715347118,"lng":113.954,"lat":22.7614,"capacity":600}},
{"type":"Feature","geometry":{"type":"Point","coordinates":[113.9544,22.7651]},"properties":{"id":532,"address":"光明新区光明街道翠湖工作站401室","Field3":"光明区","name":"翠湖社区工作站室内应急避难场所","phone":13410187739,"lng":113.9544,"lat":22.7651,"capacity":50}},
{"type":"Feature","geometry":{"type":"Point","coordinates":[113.9558,22.7635]},"properties":{"id":533,"address":"光明街道碧眼社区工作站101室","Field3":"光明区","name":"碧眼社区工作站室内应急避难场所","phone":13691797488,"lng":113.9558,"lat":22.7635,"capacity":20}},
{"type":"Feature","geometry":{"type":"Point","coordinates":[113.8966,22.8084]},"properties":{"id":534,"address":"光明街道华夏路与光侨路交汇处","Field3":"光明区","name":"光明区群众体育中心室内应急避难场所","phone":0,"lng":113.8966,"lat":22.8084,"capacity":600}},
{"type":"Feature","geometry":{"type":"Point","coordinates":[113.9003,22.7952]},"properties":{"id":535,"address":"公明街道公明社区镇明路60号","Field3":"光明区","name":"公明中学室内应急避难场所","phone":13603098136,"lng":113.9003,"lat":22.7952,"capacity":500}},
{"type":"Feature","geometry":{"type":"Point","coordinates":[113.9003,22.7952]},"properties":{"id":536,"address":"公明街道李松蓢社区志康路90号","Field3":"光明区","name":"李松蓢小学室内应急避难场所","phone":13632593039,"lng":113.9003,"lat":22.7952,"capacity":500}},
{"type":"Feature","geometry":{"type":"Point","coordinates":[113.9003,22.7952]},"properties":{"id":537,"address":"公明街道上村社区水贝路2号","Field3":"光明区","name":"公明第二小学室内应急避难场所","phone":13602590573,"lng":113.9003,"lat":22.7952,"capacity":1000}},
{"type":"Feature","geometry":{"type":"Point","coordinates":[113.9003,22.7952]},"properties":{"id":538,"address":"公明街道下村社区下村健身中心","Field3":"光明区","name":"下村健身中心室内应急避难场所","phone":13751124831,"lng":113.9003,"lat":22.7952,"capacity":100}},
{"type":"Feature","geometry":{"type":"Point","coordinates":[113.9003,22.7952]},"properties":{"id":539,"address":"公明街道西田社区工作站旁","Field3":"光明区","name":"西田老人中心室内应急避难场所","phone":13902311506,"lng":113.9003,"lat":22.7952,"capacity":40}},
{"type":"Feature","geometry":{"type":"Point","coordinates":[113.9538,22.8185]},"properties":{"id":540,"address":"新湖街道洪湖村168号","Field3":"光明区","name":"光明书院室内应急避难场所","phone":18925235406,"lng":113.9538,"lat":22.8185,"capacity":0}},
{"type":"Feature","geometry":{"type":"Point","coordinates":[114.2405,22.7081]},"properties":{"id":541,"address":"新湖街道石介头上村21号","Field3":"光明区","name":"爱华小学室内应急避难场所","phone":13823346076,"lng":114.2405,"lat":22.7081,"capacity":400}},
{"type":"Feature","geometry":{"type":"Point","coordinates":[113.8676,22.7691]},"properties":{"id":542,"address":"新湖街道楼村旧村南片下区81号","Field3":"光明区","name":"楼南老年人活动中心室内应急避难场所","phone":13632649705,"lng":113.8676,"lat":22.7691,"capacity":300}},
{"type":"Feature","geometry":{"type":"Point","coordinates":[113.9003,22.7952]},"properties":{"id":543,"address":"新湖街道公常路182号","Field3":"光明区","name":"楼村小学室内应急避难场所","phone":13802232612,"lng":113.9003,"lat":22.7952,"capacity":400}},
{"type":"Feature","geometry":{"type":"Point","coordinates":[114.3414,22.6997]},"properties":{"id":544,"address":"新湖街道楼村第二工业区果园中心路蔬菜基地内","Field3":"光明区","name":"阳光学校室内应急避难场所","phone":13823238611,"lng":114.3414,"lat":22.6997,"capacity":500}},
{"type":"Feature","geometry":{"type":"Point","coordinates":[113.9538,22.8185]},"properties":{"id":545,"address":"凤凰街道丰成路16号","Field3":"光明区","name":"光明区外国语学校室内应急避难场所","phone":17573052111,"lng":113.9538,"lat":22.8185,"capacity":1000}},
{"type":"Feature","geometry":{"type":"Point","coordinates":[113.9538,22.8185]},"properties":{"id":546,"address":"凤凰街道东坑社区东隆路92号","Field3":"光明区","name":"光明区实验学校室内应急避难场所","phone":13714265757,"lng":113.9538,"lat":22.8185,"capacity":1200}},
{"type":"Feature","geometry":{"type":"Point","coordinates":[113.9101,22.7441]},"properties":{"id":547,"address":"凤凰街道塘尾社区粤宝公司内精华学校","Field3":"光明区","name":"精华学校室内应急避难场所","phone":13430925141,"lng":113.9101,"lat":22.7441,"capacity":600}},
{"type":"Feature","geometry":{"type":"Point","coordinates":[113.8464,22.6946]},"properties":{"id":548,"address":"凤凰街道凤凰社区光侨大道2580号","Field3":"光明区","name":"凤凰社区工作站室内应急避难场所","phone":13728799004,"lng":113.8464,"lat":22.6946,"capacity":100}},
{"type":"Feature","geometry":{"type":"Point","coordinates":[113.9078,22.7348]},"properties":{"id":549,"address":"玉塘街道田寮社区文明路68号","Field3":"光明区","name":"田寮小学室内应急避难场所","phone":13510680504,"lng":113.9078,"lat":22.7348,"capacity":500}},
{"type":"Feature","geometry":{"type":"Point","coordinates":[113.9015,22.7246]},"properties":{"id":550,"address":"玉塘街道玉律社区3区168号","Field3":"光明区","name":"玉律小学室内应急避难场所","phone":13928495077,"lng":113.9015,"lat":22.7246,"capacity":500}},
{"type":"Feature","geometry":{"type":"Point","coordinates":[113.9253,22.7251]},"properties":{"id":551,"address":"玉塘街道长圳社区长圳路48号","Field3":"光明区","name":"长圳小学室内应急避难场所","phone":13312911070,"lng":113.9253,"lat":22.7251,"capacity":500}},
{"type":"Feature","geometry":{"type":"Point","coordinates":[114.0389,22.7171]},"properties":{"id":552,"address":"马田街道薯田埔社区福前路128号","Field3":"光明区","name":"马田小学室内应急避难场所","phone":13554929099,"lng":114.0389,"lat":22.7171,"capacity":600}},
{"type":"Feature","geometry":{"type":"Point","coordinates":[113.9003,22.7952]},"properties":{"id":553,"address":"马田街道建设西路南一巷","Field3":"光明区","name":"公明第一小学室内应急避难场所","phone":13510084966,"lng":113.9003,"lat":22.7952,"capacity":600}},
{"type":"Feature","geometry":{"type":"Point","coordinates":[113.9016,22.7517]},"properties":{"id":554,"address":"马田街道将石社区石围油麻港工业大道2号","Field3":"光明区","name":"博华学校 室内应急避难场所","phone":18025377299,"lng":113.9016,"lat":22.7517,"capacity":400}},
{"type":"Feature","geometry":{"type":"Point","coordinates":[113.9003,22.7952]},"properties":{"id":555,"address":"马田街道合水口新村六巷与富利南路交叉口南100米","Field3":"光明区","name":"红花山小学室内应急避难场所","phone":13510110631,"lng":113.9003,"lat":22.7952,"capacity":500}},
{"type":"Feature","geometry":{"type":"Point","coordinates":[113.906,22.7694]},"properties":{"id":556,"address":"马田街道石家社区上石家路与将裕路交叉口西北200米","Field3":"光明区","name":"秋硕小学室内应急避难场所","phone":13538256251,"lng":113.906,"lat":22.7694,"capacity":300}},
{"type":"Feature","geometry":{"type":"Point","coordinates":[113.9538,22.8185]},"properties":{"id":557,"address":"马田街道新围路5号","Field3":"光明区","name":"光明区高级中学室内应急避难场所","phone":13691699979,"lng":113.9538,"lat":22.8185,"capacity":600}},
{"type":"Feature","geometry":{"type":"Point","coordinates":[114.5141,22.5978]},"properties":{"id":558,"address":"深圳市大鹏新区大鹏街道银滩路7号","Field3":"大鹏新区","name":"深圳市大鹏新区大鹏第二小学","phone":18922837080,"lng":114.5141,"lat":22.5978,"capacity":500}},
{"type":"Feature","geometry":{"type":"Point","coordinates":[114.4936,22.5823]},"properties":{"id":559,"address":"深圳市大鹏新区大鹏办事处布新路65号","Field3":"大鹏新区","name":"布新学校避难场所","phone":13480190715,"lng":114.4936,"lat":22.5823,"capacity":100}},
{"type":"Feature","geometry":{"type":"Point","coordinates":[114.4913,22.5857]},"properties":{"id":560,"address":"深圳市大鹏新区大鹏办事处布新路33号","Field3":"大鹏新区","name":"布新社区避难场所","phone":13480190715,"lng":114.4913,"lat":22.5857,"capacity":100}},
{"type":"Feature","geometry":{"type":"Point","coordinates":[114.1053,22.5597]},"properties":{"id":561,"address":"大鹏新区大鹏办事处王母街18号","Field3":"大鹏新区","name":"大鹏社区应急避难场所","phone":15999682435,"lng":114.1053,"lat":22.5597,"capacity":100}},
{"type":"Feature","geometry":{"type":"Point","coordinates":[114.4793,22.6033]},"properties":{"id":562,"address":"深圳市大鹏新区大鹏街道迎宾路70号","Field3":"大鹏新区","name":"王母社区应急避难场所","phone":13421330757,"lng":114.4793,"lat":22.6033,"capacity":100}},
{"type":"Feature","geometry":{"type":"Point","coordinates":[113.9789,22.6269]},"properties":{"id":563,"address":"深圳市大鹏新区大鹏街道水头新祠路2号","Field3":"大鹏新区","name":"水头居民小组应急避难场所","phone":13713938698,"lng":113.9789,"lat":22.6269,"capacity":100}},
{"type":"Feature","geometry":{"type":"Point","coordinates":[113.9789,22.6269]},"properties":{"id":564,"address":"大鹏新区大鹏街道龙岐墩仔58号","Field3":"大鹏新区","name":"龙岐居民小组应急避难场所","phone":13713938698,"lng":113.9789,"lat":22.6269,"capacity":100}},
{"type":"Feature","geometry":{"type":"Point","coordinates":[114.0347,22.5314]},"properties":{"id":565,"address":"大鹏新区大鹏办事处中山路69号","Field3":"大鹏新区","name":"下沙社区应急避难场所","phone":13510616788,"lng":114.0347,"lat":22.5314,"capacity":60}},
{"type":"Feature","geometry":{"type":"Point","coordinates":[114.4807,22.5992]},"properties":{"id":566,"address":"大鹏新区大鹏办事处岭澳新村一巷1号","Field3":"大鹏新区","name":"岭澳社区避难场所","phone":13828845098,"lng":114.4807,"lat":22.5992,"capacity":100}},
{"type":"Feature","geometry":{"type":"Point","coordinates":[114.4807,22.5992]},"properties":{"id":567,"address":"大鹏新区大鹏办事处岭澳新村1号","Field3":"大鹏新区","name":"岭澳社区老人活动中心应急避难场所","phone":13828845098,"lng":114.4807,"lat":22.5992,"capacity":100}},
{"type":"Feature","geometry":{"type":"Point","coordinates":[114.4812,22.6039]},"properties":{"id":568,"address":"大鹏新区大鹏办事处鹏飞路82号","Field3":"大鹏新区","name":"鹏城社区应急避难场所","phone":13600441777,"lng":114.4812,"lat":22.6039,"capacity":100}},
{"type":"Feature","geometry":{"type":"Point","coordinates":[114.4377,22.6335]},"properties":{"id":569,"address":"葵涌办事处葵坝路8号","Field3":"大鹏新区","name":"葵涌敬老院避难场所","phone":13554776644,"lng":114.4377,"lat":22.6335,"capacity":80}},
{"type":"Feature","geometry":{"type":"Point","coordinates":[114.4337,22.6237]},"properties":{"id":570,"address":"葵涌办事处葵鹏路30号","Field3":"大鹏新区","name":"葵新社区避难场所","phone":13714095403,"lng":114.4337,"lat":22.6237,"capacity":80}},
{"type":"Feature","geometry":{"type":"Point","coordinates":[114.4362,22.6379]},"properties":{"id":571,"address":"葵涌办事处延安路6号","Field3":"大鹏新区","name":"葵涌社区避难场所","phone":13824390031,"lng":114.4362,"lat":22.6379,"capacity":80}},
{"type":"Feature","geometry":{"type":"Point","coordinates":[114.4189,22.6418]},"properties":{"id":572,"address":"葵涌办事处丰树山东路98号","Field3":"大鹏新区","name":"葵丰社区避难场所","phone":13570806031,"lng":114.4189,"lat":22.6418,"capacity":50}},
{"type":"Feature","geometry":{"type":"Point","coordinates":[114.5045,22.6506]},"properties":{"id":573,"address":"葵涌办事处坝光新村办公楼","Field3":"大鹏新区","name":"坝光社区避难场所","phone":13501594672,"lng":114.5045,"lat":22.6506,"capacity":75}},
{"type":"Feature","geometry":{"type":"Point","coordinates":[114.4331,22.6415]},"properties":{"id":574,"address":"葵涌办事处金业路138号","Field3":"大鹏新区","name":"三溪社区避难场所","phone":13824397312,"lng":114.4331,"lat":22.6415,"capacity":40}},
{"type":"Feature","geometry":{"type":"Point","coordinates":[114.4437,22.6348]},"properties":{"id":575,"address":"葵涌办事处金葵东路北5号","Field3":"大鹏新区","name":"高源社区避难场所","phone":13632721990,"lng":114.4437,"lat":22.6348,"capacity":50}},
{"type":"Feature","geometry":{"type":"Point","coordinates":[114.4138,22.6191]},"properties":{"id":576,"address":"葵涌办事处土洋吓门18号","Field3":"大鹏新区","name":"土洋社区避难场所","phone":13728623551,"lng":114.4138,"lat":22.6191,"capacity":65}},
{"type":"Feature","geometry":{"type":"Point","coordinates":[114.431,22.6097]},"properties":{"id":577,"address":"葵涌办事处官湖东路88号","Field3":"大鹏新区","name":"官湖社区避难场所","phone":13066886410,"lng":114.431,"lat":22.6097,"capacity":50}},
{"type":"Feature","geometry":{"type":"Point","coordinates":[114.3637,22.6143]},"properties":{"id":578,"address":"葵涌办事处溪坪南路19号","Field3":"大鹏新区","name":"溪涌社区避难场所","phone":13554783880,"lng":114.3637,"lat":22.6143,"capacity":50}},
{"type":"Feature","geometry":{"type":"Point","coordinates":[114.4219,22.6376]},"properties":{"id":579,"address":"葵涌办事处葵兴西路30号","Field3":"大鹏新区","name":"葵涌第二小学应急避难场所","phone":13714512837,"lng":114.4219,"lat":22.6376,"capacity":500}},
{"type":"Feature","geometry":{"type":"Point","coordinates":[114.5036,22.5413]},"properties":{"id":580,"address":"人民路39号","Field3":"大鹏新区","name":"南隆社区应急避难场所","phone":13424310330,"lng":114.5036,"lat":22.5413,"capacity":100}},
{"type":"Feature","geometry":{"type":"Point","coordinates":[114.4995,22.539]},"properties":{"id":581,"address":"南渔社区富民路47号","Field3":"大鹏新区","name":"南渔社区应急避难场所","phone":13927437503,"lng":114.4995,"lat":22.539,"capacity":100}},
{"type":"Feature","geometry":{"type":"Point","coordinates":[114.5355,22.5596]},"properties":{"id":582,"address":"东渔街1号","Field3":"大鹏新区","name":"东渔社区应急避难场所","phone":13713920481,"lng":114.5355,"lat":22.5596,"capacity":200}},
{"type":"Feature","geometry":{"type":"Point","coordinates":[114.5364,22.5618]},"properties":{"id":583,"address":"东山社区大碓村58号","Field3":"大鹏新区","name":"东山社区应急避难场所","phone":13537660246,"lng":114.5364,"lat":22.5618,"capacity":100}},
{"type":"Feature","geometry":{"type":"Point","coordinates":[114.5229,22.542]},"properties":{"id":584,"address":"新大路55号","Field3":"大鹏新区","name":"新大社区应急避难场所","phone":13560777681,"lng":114.5229,"lat":22.542,"capacity":100}},
{"type":"Feature","geometry":{"type":"Point","coordinates":[114.5803,22.4994]},"properties":{"id":585,"address":"东涌大围村126号","Field3":"大鹏新区","name":"东涌社区应急避难场所","phone":13570819130,"lng":114.5803,"lat":22.4994,"capacity":100}},
{"type":"Feature","geometry":{"type":"Point","coordinates":[114.5443,22.4897]},"properties":{"id":586,"address":"南澳办事处西冲社区鹤薮小组二区190居委会大楼","Field3":"大鹏新区","name":"西涌社区应急避难场所","phone":15999532211,"lng":114.5443,"lat":22.4897,"capacity":100}},
{"type":"Feature","geometry":{"type":"Point","coordinates":[114.4861,22.5563]},"properties":{"id":587,"address":"南澳水头沙文明路23号","Field3":"大鹏新区","name":"水头沙社区应急避难场所","phone":13713984828,"lng":114.4861,"lat":22.5563,"capacity":100}},
{"type":"Feature","geometry":{"type":"Point","coordinates":[114.5024,22.5411]},"properties":{"id":588,"address":"人民路37号","Field3":"大鹏新区","name":"南澳中心小学应急避难场所","phone":13510545643,"lng":114.5024,"lat":22.5411,"capacity":300}},
{"type":"Feature","geometry":{"type":"Point","coordinates":[114.4998,22.5411]},"properties":{"id":589,"address":"教育路小区37号","Field3":"大鹏新区","name":"南澳中学应急避难场所","phone":13603055273,"lng":114.4998,"lat":22.5411,"capacity":300}},
{"type":"Feature","geometry":{"type":"Point","coordinates":[114.4999,22.5403]},"properties":{"id":590,"address":"人民路2号","Field3":"大鹏新区","name":"南澳文体中心应急避难场所","phone":13715231938,"lng":114.4999,"lat":22.5403,"capacity":200}},
{"type":"Feature","geometry":{"type":"Point","coordinates":[114.076,22.5746]},"properties":{"id":591,"address":"梅林路26号","Field3":"福田区","name":"深圳市社会福利中心","phone":0,"lng":114.076,"lat":22.5746,"capacity":100}},
{"type":"Feature","geometry":{"type":"Point","coordinates":[114.0646,22.5485]},"properties":{"id":592,"address":"北环大道1032号","Field3":"福田区","name":"深圳市救助管理站","phone":0,"lng":114.0646,"lat":22.5485,"capacity":200}}
]}